{"_id":{"$oid":"57600fb0708b8de513b71814"},"nome":"Metropolitan Airport","latitude":42.22330093,"longitude":-72.31140137,"codPais":"US","regiao":"US-MA","cidade":"Palmer","icao":"13MA","iata":"PMX"}
{"_id":{"$oid":"57600fb0708b8de513b71835"},"nome":"Loring Seaplane Base","latitude":55.60129929,"longitude":-131.6369934,"codPais":"US","regiao":"US-AK","cidade":"Loring","icao":"13Z","iata":"WLR"}
{"_id":{"$oid":"57600fb0708b8de513b718a8"},"nome":"Nunapitchuk Airport","latitude":60.90579987,"longitude":-162.4389954,"codPais":"US","regiao":"US-AK","cidade":"Nunapitchuk","icao":"16A","iata":"NUP"}
{"_id":{"$oid":"57600fb0708b8de513b71949"},"nome":"Icy Bay Airport","latitude":59.96900177,"longitude":-141.6620026,"codPais":"US","regiao":"US-AK","cidade":"Icy Bay","icao":"19AK","iata":"ICY"}
{"_id":{"$oid":"57600fb0708b8de513b71550"},"nome":"Buckhorn Ranch Airport","latitude":38.85189819,"longitude":-106.93282,"codPais":"US","regiao":"US-CO","cidade":"Crested Butte","icao":"0CO2","iata":"CSE"}
{"_id":{"$oid":"57600fb0708b8de513b71a50"},"nome":"Kalakaket Creek AS Airport","latitude":64.4166257,"longitude":-156.8203926,"codPais":"US","regiao":"US-AK","cidade":"Kalakaket Creek","icao":"1KC","iata":"KKK"}
{"_id":{"$oid":"57600fb0708b8de513b71e14"},"nome":"Lime Village Airport","latitude":61.35910034,"longitude":-155.4400024,"codPais":"US","regiao":"US-AK","cidade":"Lime Village","icao":"2AK","iata":"LVD"}
{"_id":{"$oid":"57600fb0708b8de513b713a2"},"nome":"Utirik Airport","latitude":11.22200012,"longitude":169.852005,"codPais":"MH","regiao":"MH-UTI","cidade":"Utirik Island","icao":"03N","iata":"UTK"}
{"_id":{"$oid":"57600fb0708b8de513b71e25"},"nome":"Hog River Airport","latitude":66.2161026,"longitude":-155.6690063,"codPais":"US","regiao":"US-AK","cidade":"Hogatza","icao":"2AK6","iata":"HGZ"}
{"_id":{"$oid":"57600fb1708b8de513b720b9"},"nome":"False Island Seaplane Base","latitude":57.53219986,"longitude":-135.2129974,"codPais":"US","regiao":"US-AK","cidade":"False Island","icao":"2Z6","iata":"FAK"}
{"_id":{"$oid":"57600fb1708b8de513b7227a"},"nome":"Blakely Island Airport","latitude":48.57899857,"longitude":-122.8259964,"codPais":"US","regiao":"US-WA","cidade":"Blakely Island","icao":"38WA","iata":"BYW"}
{"_id":{"$oid":"57600fb1708b8de513b722a0"},"nome":"Drift River Airport","latitude":60.58890152,"longitude":-152.1620026,"codPais":"US","regiao":"US-AK","cidade":"Kenai","icao":"3AK5","iata":"DRF"}
{"_id":{"$oid":"57600fb1708b8de513b724dd"},"nome":"Golden Horn Lodge Seaplane Base","latitude":59.74700165,"longitude":-158875,"codPais":"US","regiao":"US-AK","cidade":"Golden Horn Lodge","icao":"3Z8","iata":"GDH"}
{"_id":{"$oid":"57600fb1708b8de513b72352"},"nome":"Rinkenberger Restricted Landing Area","latitude":41.23089981,"longitude":-89.61569977,"codPais":"US","regiao":"US-IL","cidade":"Bradford","icao":"3IS8","iata":"BDF"}
{"_id":{"$oid":"57600fb0708b8de513b716e8"},"nome":"LBJ Ranch Airport","latitude":30.25180054,"longitude":-98.62249756,"codPais":"US","regiao":"US-TX","cidade":"Johnson City","icao":"0TE7","iata":"JCY"}
{"_id":{"$oid":"57600fb1708b8de513b726a2"},"nome":"Livengood Camp Airport","latitude":65467,"longitude":-148.6534,"codPais":"US","regiao":"US-AK","cidade":"Livengood","icao":"4AK","iata":"LIV"}
{"_id":{"$oid":"57600fb1708b8de513b7274d"},"nome":"Pedro Bay Airport","latitude":59.78960037,"longitude":-154.1239929,"codPais":"US","regiao":"US-AK","cidade":"Pedro Bay","icao":"4K0","iata":"PDB"}
{"_id":{"$oid":"57600fb1708b8de513b7274e"},"nome":"Ouzinkie Airport","latitude":57.92290115,"longitude":-152.5010071,"codPais":"US","regiao":"US-AK","cidade":"Ouzinkie","icao":"4K5","iata":"KOZ"}
{"_id":{"$oid":"57600fb1708b8de513b72846"},"nome":"Ben Bruce Memorial Airpark","latitude":30.32099915,"longitude":-94.07350159,"codPais":"US","regiao":"US-TX","cidade":"Evadale","icao":"4TE8","iata":"EVA"}
{"_id":{"$oid":"57600fb1708b8de513b7269f"},"nome":"Atmautluak Airport","latitude":60.86669922,"longitude":-162.272995,"codPais":"US","regiao":"US-AK","cidade":"Atmautluak","icao":"4A2","iata":"ATT"}
{"_id":{"$oid":"57600fb0708b8de513b71e1b"},"nome":"Five Finger CG Heliport","latitude":57.26990128,"longitude":-133.6309967,"codPais":"US","regiao":"US-AK","cidade":"Five Finger","icao":"2AK3","iata":"FIV"}
{"_id":{"$oid":"57600fb1708b8de513b72887"},"nome":"Blaine Municipal Airport","latitude":48.99010086,"longitude":-122.7320023,"codPais":"US","regiao":"US-WA","cidade":"Blaine","icao":"4W6","iata":"BWS"}
{"_id":{"$oid":"57600fb1708b8de513b729f2"},"nome":"Tokeen Seaplane Base","latitude":55.93709946,"longitude":-133.3269959,"codPais":"US","regiao":"US-AK","cidade":"Tokeen","icao":"57A","iata":"TKI"}
{"_id":{"$oid":"57600fb1708b8de513b728ab"},"nome":"Hyder Seaplane Base","latitude":55.9033244,"longitude":-130.0099754,"codPais":"US","regiao":"US-AK","cidade":"Hyder","icao":"4Z7","iata":"WHD"}
{"_id":{"$oid":"57600fb1708b8de513b72b27"},"nome":"Ketchikan Harbor Seaplane Base","latitude":55.34989929,"longitude":-131.677002,"codPais":"US","regiao":"US-AK","cidade":"Ketchikan","icao":"5KE","iata":"WFB"}
{"_id":{"$oid":"57600fb1708b8de513b72a66"},"nome":"Aleknagik / New Airport","latitude":59.2826004,"longitude":-158.6179962,"codPais":"US","regiao":"US-AK","cidade":"Aleknagik","icao":"5A8","iata":"WKK"}
{"_id":{"$oid":"57600fb1708b8de513b72d6a"},"nome":"Fort Gillem Heliport","latitude":33.61500168,"longitude":-84.3463974,"codPais":"US","regiao":"US-GA","cidade":"Fort Gillem","icao":"65GA","iata":"FOP"}
{"_id":{"$oid":"57600fb1708b8de513b72e56"},"nome":"Catalina Air-Sea Terminal Heliport","latitude":33.74919891,"longitude":-118.2750015,"codPais":"US","regiao":"US-CA","cidade":"San Pedro","icao":"6CA3","iata":"SPQ"}
{"_id":{"$oid":"57600fb1708b8de513b72f22"},"nome":"East 34th Street Heliport","latitude":40.74259949,"longitude":-73.9720993,"codPais":"US","regiao":"US-NY","cidade":"New York","icao":"6N5","iata":"TSS"}
{"_id":{"$oid":"57600fb1708b8de513b72f2d"},"nome":"New York Skyports Inc Seaplane Base","latitude":40.73400116,"longitude":-73.97290039,"codPais":"US","regiao":"US-NY","cidade":"New York","icao":"6N7","iata":"QNY"}
{"_id":{"$oid":"57600fb1708b8de513b72f71"},"nome":"Earl Henry Airport","latitude":36.79589844,"longitude":-97.31700134,"codPais":"US","regiao":"US-OK","cidade":"Blackwell","icao":"6OK6","iata":"BWL"}
{"_id":{"$oid":"57600fb1708b8de513b73176"},"nome":"Yes Bay Lodge Seaplane Base","latitude":55.91630173,"longitude":-131.8009949,"codPais":"US","regiao":"US-AK","cidade":"Yes Bay","icao":"78K","iata":"WYB"}
{"_id":{"$oid":"57600fb1708b8de513b73190"},"nome":"Center Island Airport","latitude":48.49010086,"longitude":-122.8320007,"codPais":"US","regiao":"US-WA","cidade":"Center Island","icao":"78WA","iata":"CWS"}
{"_id":{"$oid":"57600fb1708b8de513b72d77"},"nome":"Southern Seaplane Airport","latitude":29.86610031,"longitude":-90.02220154,"codPais":"US","regiao":"US-LA","cidade":"Belle Chasse","icao":"65LA","iata":"BCS"}
{"_id":{"$oid":"57600fb1708b8de513b72c0c"},"nome":"Hamilton Aircraft  Inc Airport","latitude":32.73199844,"longitude":"","codPais":"US","regiao":"US-TX","cidade":"Seminole","icao":"5TA0","iata":"5TA0"}
{"_id":{"$oid":"57600fb1708b8de513b73250"},"nome":"Tatitlek Airport","latitude":60.8689003,"longitude":-146.6860046,"codPais":"US","regiao":"US-AK","cidade":"Tatitlek","icao":"","iata":"TEK"}
{"_id":{"$oid":"57600fb1708b8de513b73435"},"nome":"Meyers Chuck Seaplane Base","latitude":55.73960114,"longitude":-132.2550049,"codPais":"US","regiao":"US-AK","cidade":"Meyers Chuck","icao":"84K","iata":"WMK"}
{"_id":{"$oid":"57600fb1708b8de513b73426"},"nome":"Century City Heliport","latitude":34.06079865,"longitude":-118.4179993,"codPais":"US","regiao":"US-CA","cidade":"Los Angeles","icao":"84CL","iata":"CCD"}
{"_id":{"$oid":"57600fb1708b8de513b7366b"},"nome":"Faith Cattle Company Longfellow Ranch Airport","latitude":30.30019951,"longitude":"NA","codPais":"US","regiao":"US-TX","cidade":"Fort Stockton","icao":"8TE6","iata":"8TE6"}
{"_id":{"$oid":"57600fb1708b8de513b736e5"},"nome":"Waldronaire Airport","latitude":48.71179962,"longitude":-123.0179977,"codPais":"US","regiao":"US-WA","cidade":"East Sound","icao":"90WA","iata":"WDN"}
{"_id":{"$oid":"57600fb1708b8de513b7384b"},"nome":"Chuathbaluk Airport","latitude":61.57910156,"longitude":-159.2160034,"codPais":"US","regiao":"US-AK","cidade":"Chuathbaluk","icao":"PACH","iata":"CHU"}
{"_id":{"$oid":"57600fb1708b8de513b737c1"},"nome":"North Whale Seaplane Base","latitude":56.11629868,"longitude":-133.121994,"codPais":"US","regiao":"US-AK","cidade":"North Whale Pass","icao":"96Z","iata":"WWP"}
{"_id":{"$oid":"57600fb1708b8de513b738e2"},"nome":"Air Logistics","latitude":"Amelia Base Heliport","longitude":29.66830063,"codPais":"NA","regiao":"US","cidade":"US-LA","icao":"Amelia","iata":"9LA7"}
{"_id":{"$oid":"57600fb1708b8de513b73a0e"},"nome":"Tuntutuliak Airport","latitude":60.33530045,"longitude":-162.6670074,"codPais":"US","regiao":"US-AK","cidade":"Tuntutuliak","icao":"A61","iata":"WTL"}
{"_id":{"$oid":"57600fb1708b8de513b73a04"},"nome":"Levelock Airport","latitude":59.12810135,"longitude":-156.8589935,"codPais":"US","regiao":"US-AK","cidade":"Levelock","icao":"9Z8","iata":"KLL"}
{"_id":{"$oid":"57600fb1708b8de513b732b3"},"nome":"Pine Island Airport","latitude":36.25350189,"longitude":-75.78849792,"codPais":"US","regiao":"US-NC","cidade":"Corolla","icao":"7NC2","iata":"DUF"}
{"_id":{"$oid":"57600fb1708b8de513b733dc"},"nome":"Fort Bragg Airport","latitude":39.47430038,"longitude":-123.7959976,"codPais":"US","regiao":"US-CA","cidade":"Fort Bragg","icao":"82CL","iata":"FOB"}
{"_id":{"$oid":"57600fb1708b8de513b73a11"},"nome":"Saginaw Seaplane Base","latitude":56.88629913,"longitude":-134.1580048,"codPais":"US","regiao":"US-AK","cidade":"Saginaw Bay","icao":"A23","iata":"SGW"}
{"_id":{"$oid":"57600fb1708b8de513b73a1e"},"nome":"Chignik Lake Airport","latitude":56.25500107,"longitude":-158.7749939,"codPais":"US","regiao":"US-AK","cidade":"Chignik Lake","icao":"A79","iata":"KCQ"}
{"_id":{"$oid":"57600fb1708b8de513b73a31"},"nome":"Atkamba Airport","latitude":-6.065555556,"longitude":141.0952778,"codPais":"PG","regiao":"PG-WPD","cidade":"Atkamba Mission","icao":"","iata":"ABP"}
{"_id":{"$oid":"57600fb1708b8de513b73a33"},"nome":"El Daein Airport","latitude":11.4023,"longitude":26.1186,"codPais":"SD","regiao":"SD-DE","cidade":"El Daein","icao":"","iata":"ADV"}
{"_id":{"$oid":"57600fb1708b8de513b73a35"},"nome":"Andakombe Airport","latitude":-7.137222222,"longitude":145.7447222,"codPais":"PG","regiao":"PG-EHG","cidade":"Andekombe","icao":"AYAN","iata":"ADC"}
{"_id":{"$oid":"57600fb1708b8de513b73a40"},"nome":"Aseki Airport","latitude":-7.350804856,"longitude":146.1938667,"codPais":"PG","regiao":"PG-MPL","cidade":"Aseki","icao":"AYAX","iata":"AEK"}
{"_id":{"$oid":"57600fb1708b8de513b73a48"},"nome":"Orūzgān Airport","latitude":32.90299988,"longitude":66.63089752,"codPais":"AF","regiao":"AF-ORU","cidade":"Orūzgān","icao":"OARG","iata":"URZ"}
{"_id":{"$oid":"57600fb1708b8de513b73a49"},"nome":"Salerno Landing Zone Airport","latitude":33.36380005,"longitude":69.95610046,"codPais":"AF","regiao":"AF-PIA","cidade":"","icao":"","iata":"OLR"}
{"_id":{"$oid":"57600fb1708b8de513b73a3c"},"nome":"Adareil Airport","latitude":10.05361111,"longitude":32.95944444,"codPais":"SS","regiao":"SS-23","cidade":"","icao":"","iata":"AEE"}
{"_id":{"$oid":"57600fb1708b8de513b73a4f"},"nome":"Kondavattavana Tank Seaplane Base","latitude":7284,"longitude":81644,"codPais":"LK","regiao":"LK-5","cidade":"Ampara","icao":"","iata":"AFK"}
{"_id":{"$oid":"57600fb1708b8de513b73a53"},"nome":"Afutara Aerodrome","latitude":-9.191388889,"longitude":160.9486111,"codPais":"SB","regiao":"SB-ML","cidade":"Bila","icao":"AGAF","iata":"AFT"}
{"_id":{"$oid":"57600fb1708b8de513b73a50"},"nome":"Afore Airstrip","latitude":-9.142222222,"longitude":148.3908333,"codPais":"PG","regiao":"PG-NPP","cidade":"","icao":"AYAF","iata":"AFR"}
{"_id":{"$oid":"57600fb1708b8de513b73a3a"},"nome":"Andorra la Vella Heliport","latitude":42.50049973,"longitude":1.517120004,"codPais":"AD","regiao":"AD-07","cidade":"Andorra La Vella","icao":"","iata":"ALV"}
{"_id":{"$oid":"57600fb1708b8de513b73a3e"},"nome":"Algeciras Heliport","latitude":36.12888034,"longitude":-5.441118479,"codPais":"ES","regiao":"ES-CA","cidade":"Algeciras","icao":"LEAG","iata":"AEI"}
{"_id":{"$oid":"57600fb1708b8de513b73a56"},"nome":"Auki Airport","latitude":-8.702569962,"longitude":160.6820068,"codPais":"SB","regiao":"SB-ML","cidade":"Auki","icao":"AGGA","iata":"AKS"}
{"_id":{"$oid":"57600fb1708b8de513b73a57"},"nome":"Bellona/Anua Airport","latitude":-11.30222222,"longitude":159.7983333,"codPais":"SB","regiao":"SB-RB","cidade":"Anua","icao":"AGGB","iata":"BNY"}
{"_id":{"$oid":"57600fb1708b8de513b73a58"},"nome":"Choiseul Bay Airport","latitude":-6.711944,"longitude":156.396111,"codPais":"SB","regiao":"SB-CH","cidade":"","icao":"AGGC","iata":"CHY"}
{"_id":{"$oid":"57600fb1708b8de513b73a55"},"nome":"Angoram Airport","latitude":-4.055833333,"longitude":144.0738889,"codPais":"PG","regiao":"PG-ESW","cidade":"Angoram","icao":"","iata":"AGG"}
{"_id":{"$oid":"57600fb1708b8de513b73a59"},"nome":"Ballalae Airport","latitude":-6.990745,"longitude":155.886656,"codPais":"SB","regiao":"SB-WE","cidade":"Ballalae","icao":"AGGE","iata":"BAS"}
{"_id":{"$oid":"57600fb1708b8de513b73a5a"},"nome":"Uru Harbour Airport","latitude":-8.873330116,"longitude":161.0110016,"codPais":"SB","regiao":"SB-ML","cidade":"Atoifi","icao":"AGAT","iata":"ATD"}
{"_id":{"$oid":"57600fb1708b8de513b73a5c"},"nome":"Honiara International Airport","latitude":-9.42800045,"longitude":160.0549927,"codPais":"SB","regiao":"SB-CT","cidade":"Honiara","icao":"AGGH","iata":"HIR"}
{"_id":{"$oid":"57600fb1708b8de513b73a5b"},"nome":"Barakoma Airport","latitude":-7.912779808,"longitude":156.7059937,"codPais":"SB","regiao":"SB-WE","cidade":"Barakoma","icao":"AGBA","iata":"VEV"}
{"_id":{"$oid":"57600fb1708b8de513b73a54"},"nome":"Geva Airport","latitude":-7.575829983,"longitude":156.5970001,"codPais":"SB","regiao":"SB-WE","cidade":"Liangia","icao":"AGEV","iata":"GEF"}
{"_id":{"$oid":"57600fb1708b8de513b73a60"},"nome":"Ulawa Airport","latitude":-9.860543583,"longitude":161.9795465,"codPais":"SB","regiao":"SB-MK","cidade":"Arona","icao":"AGAR","iata":"RNA"}
{"_id":{"$oid":"57600fb1708b8de513b73a61"},"nome":"Fera/Maringe Airport","latitude":-8.107500076,"longitude":159.5769958,"codPais":"SB","regiao":"SB-IS","cidade":"Fera Island","icao":"AGGF","iata":"FRE"}
{"_id":{"$oid":"57600fb1708b8de513b73a5f"},"nome":"Ngorangora Airport","latitude":-10.44970036,"longitude":161.897995,"codPais":"SB","regiao":"SB-MK","cidade":"Kirakira","icao":"AGGK","iata":"IRA"}
{"_id":{"$oid":"57600fb1708b8de513b73a63"},"nome":"Munda Airport","latitude":-8.327969551,"longitude":157.2630005,"codPais":"SB","regiao":"SB-WE","cidade":"","icao":"AGGM","iata":"MUA"}
{"_id":{"$oid":"57600fb1708b8de513b73a64"},"nome":"Ontong Java Atoll Airstrip","latitude":-5515,"longitude":159.5277778,"codPais":"SB","regiao":"SB-ML","cidade":"Ontong Java Atoll","icao":"AGGQ","iata":"OTV"}
{"_id":{"$oid":"57600fb1708b8de513b73a5d"},"nome":"Babanakira Airport","latitude":-9.74750042,"longitude":159.8390045,"codPais":"SB","regiao":"SB-GU","cidade":"Mbambanakira","icao":"AGGI","iata":"MBU"}
{"_id":{"$oid":"57600fb1708b8de513b73a62"},"nome":"Santa Cruz/Graciosa Bay/Luova Airport","latitude":-10.72029972,"longitude":165.7949982,"codPais":"SB","regiao":"SB-TE","cidade":"Santa Cruz/Graciosa Bay/Luova","icao":"AGGL","iata":"SCZ"}
{"_id":{"$oid":"57600fb1708b8de513b73a5e"},"nome":"Avu Avu Airport","latitude":-9.868333333,"longitude":160.4105556,"codPais":"SB","regiao":"SB-GU","cidade":"","icao":"AGGJ","iata":"AVU"}
{"_id":{"$oid":"57600fb1708b8de513b73a65"},"nome":"Mono Airport","latitude":-7.416940212,"longitude":155.5650024,"codPais":"SB","regiao":"SB-WE","cidade":"Stirling Island","icao":"AGGO","iata":"MNY"}
{"_id":{"$oid":"57600fb1708b8de513b73a69"},"nome":"Suavanao Airport","latitude":-7.585559845,"longitude":158.7310028,"codPais":"SB","regiao":"SB-IS","cidade":"Suavanao","icao":"AGGV","iata":"VAO"}
{"_id":{"$oid":"57600fb1708b8de513b73a6a"},"nome":"Rennell/Tingoa Airport","latitude":-11.53390026,"longitude":160.0630035,"codPais":"SB","regiao":"SB-RB","cidade":"Rennell Island","icao":"AGGR","iata":"RNL"}
{"_id":{"$oid":"57600fb1708b8de513b73a67"},"nome":"Santa Ana Airport","latitude":-10.847994,"longitude":162.454108,"codPais":"SB","regiao":"SB-MK","cidade":"Santa Ana Island","icao":"AGGT","iata":"NNB"}
{"_id":{"$oid":"57600fb1708b8de513b73a68"},"nome":"Marau Airport","latitude":-9.86166954,"longitude":160.8249969,"codPais":"SB","regiao":"SB-GU","cidade":"Marau","icao":"AGGU","iata":"RUS"}
{"_id":{"$oid":"57600fb1708b8de513b73a6d"},"nome":"Parasi Airport","latitude":-9.641670227,"longitude":161.4250031,"codPais":"SB","regiao":"SB-ML","cidade":"Parasi","icao":"AGGP","iata":"PRS"}
{"_id":{"$oid":"57600fb1708b8de513b73a6b"},"nome":"Yandina Airport","latitude":-9.092816,"longitude":159.21841,"codPais":"SB","regiao":"SB-CE","cidade":"Yandina","icao":"AGGY","iata":"XYA"}
{"_id":{"$oid":"57600fb1708b8de513b73a6e"},"nome":"Kukudu Airport","latitude":-8.0262,"longitude":156.94783,"codPais":"SB","regiao":"SB-WE","cidade":"Kolombangara Island","icao":"AGKU","iata":"KUE"}
{"_id":{"$oid":"57600fb1708b8de513b73a6f"},"nome":"Kaghau Airport","latitude":-7.3305,"longitude":157585,"codPais":"SB","regiao":"SB-CH","cidade":"Kagau Island","icao":"AGKG","iata":"KGE"}
{"_id":{"$oid":"57600fb1708b8de513b73a66"},"nome":"Sege Airport","latitude":-8.578889847,"longitude":157.8760071,"codPais":"SB","regiao":"SB-WE","cidade":"Sege","icao":"AGGS","iata":"EGM"}
{"_id":{"$oid":"57600fb1708b8de513b73a73"},"nome":"Ramata Airport","latitude":-8.168060303,"longitude":157.6430054,"codPais":"SB","regiao":"SB-WE","cidade":"Ramata","icao":"AGRM","iata":"RBV"}
{"_id":{"$oid":"57600fb1708b8de513b73a72"},"nome":"Ringi Cove Airport","latitude":-8.126390457,"longitude":157.1430054,"codPais":"SB","regiao":"SB-WE","cidade":"Ringi Cove","icao":"AGRC","iata":"RIN"}
{"_id":{"$oid":"57600fb1708b8de513b73a74"},"nome":"Tulaghi Heliport","latitude":-9108,"longitude":160.1491667,"codPais":"SB","regiao":"SB-CE","cidade":"Tulaghi Island","icao":"AGTI","iata":"TLG"}
{"_id":{"$oid":"57600fb1708b8de513b73a76"},"nome":"Amchitka Army Airfield","latitude":51.37777778,"longitude":179.2591667,"codPais":"US","regiao":"US-AK","cidade":"Amchitka Island","icao":"PAHT","iata":"AHT"}
{"_id":{"$oid":"57600fb1708b8de513b73a75"},"nome":"Hongyuan Airport","latitude":32.53154,"longitude":102.35224,"codPais":"CN","regiao":"CN-51","cidade":"Aba","icao":"","iata":"AHJ"}
{"_id":{"$oid":"57600fb1708b8de513b73a71"},"nome":"Nana Airport","latitude":-10.6758,"longitude":162.2049,"codPais":"SB","regiao":"SB-MK","cidade":"Star Harbor","icao":"AGNA","iata":"NAZ"}
{"_id":{"$oid":"57600fb1708b8de513b73a77"},"nome":"Ambatolhy Airport","latitude":-20.01583333,"longitude":45535,"codPais":"MG","regiao":"MG-U","cidade":"Ambatolahy","icao":"","iata":"AHY"}
{"_id":{"$oid":"57600fb1708b8de513b73a78"},"nome":"Aiome Airport","latitude":-5.145699978,"longitude":144.7307003,"codPais":"PG","regiao":"PG-MPM","cidade":"Aiome","icao":"AYAO","iata":"AIE"}
{"_id":{"$oid":"57600fb1708b8de513b73a79"},"nome":"Kwailabesi Airport","latitude":-8.360508,"longitude":160.775127,"codPais":"SB","regiao":"SB-ML","cidade":"Kwailabesi","icao":"AGKW","iata":"KWS"}
{"_id":{"$oid":"57600fb1708b8de513b73a70"},"nome":"Nusatupe Airport","latitude":-8.097780228,"longitude":156.8639984,"codPais":"SB","regiao":"SB-WE","cidade":"Gizo","icao":"AGGN","iata":"GZO"}
{"_id":{"$oid":"57600fb1708b8de513b73a81"},"nome":"Kagua Airport","latitude":-6.396388889,"longitude":143.8536111,"codPais":"PG","regiao":"PG-SHM","cidade":"Kagua","icao":"","iata":"AGK"}
{"_id":{"$oid":"57600fb1708b8de513b73a80"},"nome":"Wanigela Airport","latitude":-9.3375,"longitude":149.1555556,"codPais":"PG","regiao":"PG-NPP","cidade":"","icao":"AYWG","iata":"AGL"}
{"_id":{"$oid":"57600fb1708b8de513b73a9d"},"nome":"Chena Hot Springs Airport","latitude":65.05180359,"longitude":-146.0469971,"codPais":"US","regiao":"US-AK","cidade":"Chena Hot Springs","icao":"AK13","iata":"CEX"}
{"_id":{"$oid":"57600fb1708b8de513b73aa2"},"nome":"Herendeen Bay Airport","latitude":55.80139923,"longitude":-160.8990021,"codPais":"US","regiao":"US-AK","cidade":"Herendeen Bay","icao":"AK33","iata":"HED"}
{"_id":{"$oid":"57600fb1708b8de513b73a7a"},"nome":"Aiambak Airport","latitude":-7.342777778,"longitude":141.2675,"codPais":"PG","regiao":"PG-WPD","cidade":"Aiambak","icao":"AYAK","iata":"AIH"}
{"_id":{"$oid":"57600fb1708b8de513b73aaa"},"nome":"Taylor Airport","latitude":65.6792984,"longitude":-164.798996,"codPais":"US","regiao":"US-AK","cidade":"Taylor","icao":"AK49","iata":"TWE"}
{"_id":{"$oid":"57600fb1708b8de513b73abb"},"nome":"Tikchik Lodge Seaplane Base","latitude":59.96319962,"longitude":-158.477005,"codPais":"US","regiao":"US-AK","cidade":"Tikchik","icao":"AK56","iata":"KTH"}
{"_id":{"$oid":"57600fb1708b8de513b73ab9"},"nome":"Naukati Bay Seaplane Base","latitude":55.84960175,"longitude":-133.2279968,"codPais":"US","regiao":"US-AK","cidade":"Tuxekan Island","icao":"AK62","iata":"WNC"}
{"_id":{"$oid":"57600fb1708b8de513b73a7b"},"nome":"Ailinglaplap Airport","latitude":7.279421592,"longitude":168.8257,"codPais":"MH","regiao":"MH-ALL","cidade":"Bigatyelang Island","icao":"","iata":"AIP"}
{"_id":{"$oid":"57600fb1708b8de513b73ac3"},"nome":"Lonely Air Station","latitude":70.91069794,"longitude":-153.2420044,"codPais":"US","regiao":"US-AK","cidade":"Lonely","icao":"PALN","iata":"LNI"}
{"_id":{"$oid":"57600fb1708b8de513b73ada"},"nome":"Boswell Bay Airport","latitude":60.42309952,"longitude":-146.1459961,"codPais":"US","regiao":"US-AK","cidade":"Boswell Bay","icao":"AK97","iata":"BSW"}
{"_id":{"$oid":"57600fb1708b8de513b73ade"},"nome":"Zakuoma Airport","latitude":10.89027778,"longitude":19.81722222,"codPais":"TD","regiao":"TD-SA","cidade":"ZaKouma","icao":"","iata":"AKM"}
{"_id":{"$oid":"57600fb1708b8de513b73b2a"},"nome":"Sharpe Field","latitude":32.4919014,"longitude":-85.77559662,"codPais":"US","regiao":"US-AL","cidade":"Tuskegee","icao":"AL73","iata":"TGE"}
{"_id":{"$oid":"57600fb1708b8de513b73ac6"},"nome":"Candle 2 Airport","latitude":65.90769959,"longitude":-161.9259949,"codPais":"US","regiao":"US-AK","cidade":"Candle","icao":"AK75","iata":"CDL"}
{"_id":{"$oid":"57600fb1708b8de513b73b44"},"nome":"Alitak Seaplane Base","latitude":56.8995018,"longitude":-154.2480011,"codPais":"US","regiao":"US-AK","cidade":"Lazy Bay","icao":"","iata":"ALZ"}
{"_id":{"$oid":"57600fb1708b8de513b73ad9"},"nome":"Bartletts Airport","latitude":58.21620178,"longitude":-157.352005,"codPais":"US","regiao":"US-AK","cidade":"Egegik","icao":"AK96","iata":"BSZ"}
{"_id":{"$oid":"57600fb1708b8de513b73b4b"},"nome":"Alto Molocue Airport","latitude":-15.61027778,"longitude":37.68138889,"codPais":"MZ","regiao":"MZ-Q","cidade":"Alto Molocue","icao":"","iata":"AME"}
{"_id":{"$oid":"57600fb1708b8de513b73b4d"},"nome":"Ama Airport","latitude":-4.101111111,"longitude":141.67,"codPais":"PG","regiao":"PG-ESW","cidade":"","icao":"AYAA","iata":"AMF"}
{"_id":{"$oid":"57600fb1708b8de513b73b4e"},"nome":"Amanab Airport","latitude":-3586,"longitude":141.2143333,"codPais":"PG","regiao":"PG-SAN","cidade":"Amanab","icao":"AYAM","iata":"AMU"}
{"_id":{"$oid":"57600fb1708b8de513b73ace"},"nome":"Amook Bay Seaplane Base","latitude":57.4715004,"longitude":-153.8150024,"codPais":"US","regiao":"US-AK","cidade":"Amook Bay","icao":"AK81","iata":"AOS"}
{"_id":{"$oid":"57600fb1708b8de513b73b52"},"nome":"Nauru International Airport","latitude":-0.547458,"longitude":166.919006,"codPais":"NR","regiao":"NR-14","cidade":"Yaren District","icao":"ANYN","iata":"INU"}
{"_id":{"$oid":"57600fb1708b8de513b73b53"},"nome":"Angus Downs Airport","latitude":-25.0325,"longitude":132.2748,"codPais":"AU","regiao":"AU-NT","cidade":"Angus Downs Station","icao":"","iata":"ANZ"}
{"_id":{"$oid":"57600fb1708b8de513b73b56"},"nome":"Anuha Island Resort Airport","latitude":-9.001388889,"longitude":160225,"codPais":"SB","regiao":"SB-CE","cidade":"Anhua Island","icao":"","iata":"ANH"}
{"_id":{"$oid":"57600fb1708b8de513b73b5a"},"nome":"Cangamba Airport","latitude":-13.7105999,"longitude":19.86109924,"codPais":"AO","regiao":"AO-MOX","cidade":"Cangamba","icao":"","iata":"CNZ"}
{"_id":{"$oid":"57600fb1708b8de513b73b5b"},"nome":"Dirico Airport","latitude":-17.98192406,"longitude":20.76806068,"codPais":"AO","regiao":"AO-CCU","cidade":"Dirico","icao":"","iata":"DRC"}
{"_id":{"$oid":"57600fb1708b8de513b73b5d"},"nome":"Jamba Airport","latitude":-14.6981926,"longitude":16.07014847,"codPais":"AO","regiao":"AO-HUA","cidade":"Jamba","icao":"","iata":"JMB"}
{"_id":{"$oid":"57600fb1708b8de513b73b5c"},"nome":"Lumbala Airport","latitude":-12.63987732,"longitude":22.5868206,"codPais":"AO","regiao":"AO-MOX","cidade":"Lumbala","icao":"","iata":"GGC"}
{"_id":{"$oid":"57600fb1708b8de513b73b4f"},"nome":"Ambatomainty Airport","latitude":-17.68666667,"longitude":45.62388889,"codPais":"MG","regiao":"MG-M","cidade":"","icao":"","iata":"AMY"}
{"_id":{"$oid":"57600fb1708b8de513b73b61"},"nome":"Aroa Airport","latitude":-9.0254,"longitude":146.8,"codPais":"PG","regiao":"PG-CPM","cidade":"Agevairu","icao":"","iata":"AOA"}
{"_id":{"$oid":"57600fb1708b8de513b73b62"},"nome":"Annanberg Airport","latitude":-4.904166667,"longitude":144.6358333,"codPais":"PG","regiao":"PG-MPM","cidade":"","icao":"","iata":"AOB"}
{"_id":{"$oid":"57600fb1708b8de513b73b60"},"nome":"Andulo Airport","latitude":-11.47229958,"longitude":16.71089935,"codPais":"AO","regiao":"AO-BIE","cidade":"","icao":"","iata":"ANL"}
{"_id":{"$oid":"57600fb1708b8de513b73b63"},"nome":"Abou-Deïa Airport","latitude":11.4773,"longitude":19.2874,"codPais":"TD","regiao":"TD-SA","cidade":"Abou-Deïa","icao":"","iata":"AOD"}
{"_id":{"$oid":"57600fb1708b8de513b73b67"},"nome":"April River Airport","latitude":-4.676666667,"longitude":142.5401389,"codPais":"PG","regiao":"PG-ESW","cidade":"April River","icao":"AYPE","iata":"APR"}
{"_id":{"$oid":"57600fb1708b8de513b73b64"},"nome":"Asapa Airport","latitude":-8.979166667,"longitude":148.1036111,"codPais":"PG","regiao":"PG-NPP","cidade":"","icao":"","iata":"APP"}
{"_id":{"$oid":"57600fb1708b8de513b73b6b"},"nome":"Girdwood Airport","latitude":60.96609879,"longitude":-149.1260071,"codPais":"US","regiao":"US-AK","cidade":"Girdwood","icao":"AQY","iata":"AQY"}
{"_id":{"$oid":"57600fb1708b8de513b73b5e"},"nome":"Capanda Airport","latitude":-9.769370079,"longitude":15.4553194,"codPais":"AO","regiao":"AO-MAL","cidade":"Capanda","icao":"FNCP","iata":"KNP"}
{"_id":{"$oid":"57600fb1708b8de513b73b5f"},"nome":"Ndalatandos Airport","latitude":-9.275188446,"longitude":14.97724247,"codPais":"AO","regiao":"AO-CNO","cidade":"Ndalatandos","icao":"","iata":"NDF"}
{"_id":{"$oid":"57600fb1708b8de513b73b6f"},"nome":"Caleta Olivia Airport","latitude":-46.43180084,"longitude":-67.51860046,"codPais":"AR","regiao":"AR-Z","cidade":"Caleta Olivia","icao":"","iata":"CVI"}
{"_id":{"$oid":"57600fb1708b8de513b73b72"},"nome":"General Villegas Airport","latitude":-35,"longitude":-63,"codPais":"AR","regiao":"AR-B","cidade":"General Villegas","icao":"","iata":"VGS"}
{"_id":{"$oid":"57600fb1708b8de513b73b71"},"nome":"Charata Airport","latitude":-27.2164,"longitude":-61.2103,"codPais":"AR","regiao":"AR-H","cidade":"Charata","icao":"","iata":"CNT"}
{"_id":{"$oid":"57600fb1708b8de513b73b73"},"nome":"Los Menucos Airport","latitude":-40.81769943,"longitude":-68.0746994,"codPais":"AR","regiao":"AR-R","cidade":"Los Menucos","icao":"","iata":"LMD"}
{"_id":{"$oid":"57600fb1708b8de513b73b82"},"nome":"Villa Mercedes Airport","latitude":-33.63499832,"longitude":-65.41870117,"codPais":"AR","regiao":"AR-D","cidade":"Villa Mercedes","icao":"","iata":"VME"}
{"_id":{"$oid":"57600fb1708b8de513b73b78"},"nome":"Saenz Peña Airport","latitude":-26.81579971,"longitude":-60.44829941,"codPais":"AR","regiao":"AR-H","cidade":"Presidencia Roque Sáenz Peña","icao":"","iata":"SZQ"}
{"_id":{"$oid":"57600fb1708b8de513b73b6d"},"nome":"Bragado Airport","latitude":-35144,"longitude":-60.4803,"codPais":"AR","regiao":"AR-B","cidade":"Bragado","icao":"","iata":"QRF"}
{"_id":{"$oid":"57600fb1708b8de513b73b6e"},"nome":"[Duplicate] Brigadier Hector Ruiz Airport","latitude":-37.43330002,"longitude":-61.88330078,"codPais":"AR","regiao":"AR-B","cidade":"Coronel Suarez","icao":"","iata":"CSZ"}
{"_id":{"$oid":"57600fb1708b8de513b73b83"},"nome":"Valcheta Airport","latitude":-40.70000076,"longitude":-66.15000153,"codPais":"AR","regiao":"AR-R","cidade":"Valcheta","icao":"","iata":"VCF"}
{"_id":{"$oid":"57600fb1708b8de513b73cc7"},"nome":"Sunchales Aeroclub Airport","latitude":-30.9575,"longitude":-61.5283,"codPais":"AR","regiao":"AR-S","cidade":"Sunchales","icao":"SAFS","iata":"NCJ"}
{"_id":{"$oid":"57600fb1708b8de513b73dc1"},"nome":"Asirim Airport","latitude":-6.009722222,"longitude":150.3686111,"codPais":"PG","regiao":"PG-WBK","cidade":"","icao":"","iata":"ASZ"}
{"_id":{"$oid":"57600fb1708b8de513b73d58"},"nome":"Colonia Sarmiento Airport","latitude":-45.582371,"longitude":-68.999841,"codPais":"AR","regiao":"AR-U","cidade":"Sarmiento","icao":"","iata":"OLN"}
{"_id":{"$oid":"57600fb1708b8de513b73d36"},"nome":"Termal Airport","latitude":-26.75361061,"longitude":-60.49222183,"codPais":"AR","regiao":"AR-H","cidade":"Presidencia Roque Sáenz Peña","icao":"SARS","iata":"PRQ"}
{"_id":{"$oid":"57600fb1708b8de513b73dc6"},"nome":"Namatanai Airport","latitude":-3.6695,"longitude":152438,"codPais":"PG","regiao":"PG-NIK","cidade":"Namatanai","icao":"AYNX","iata":"ATN"}
{"_id":{"$oid":"57600fb1708b8de513b73dcb"},"nome":"Tau Airport","latitude":-14.22920036,"longitude":-169.5110016,"codPais":"AS","regiao":"AS-U-A","cidade":"Tau Village","icao":"","iata":"TAV"}
{"_id":{"$oid":"57600fb1708b8de513b73dc7"},"nome":"Asbury Park Neptune Air Terminal","latitude":40.21930556,"longitude":-74.09083333,"codPais":"US","regiao":"US-NJ","cidade":"Asbury Park","icao":"","iata":"ARX"}
{"_id":{"$oid":"57600fb1708b8de513b73dc9"},"nome":"Aitape Airport","latitude":-3.143611111,"longitude":142.3468056,"codPais":"PG","regiao":"PG-SAN","cidade":"Aitape","icao":"AYAI","iata":"ATP"}
{"_id":{"$oid":"57600fb1708b8de513b73cef"},"nome":"Carmen De Patagones Airport","latitude":-40.7781,"longitude":-62.9803,"codPais":"AR","regiao":"AR-B","cidade":"Carmen de Patagones","icao":"","iata":"CPG"}
{"_id":{"$oid":"57600fb1708b8de513b73e19"},"nome":"Lady Elliot Island Airstrip","latitude":-24.1129,"longitude":152.7156,"codPais":"AU","regiao":"AU-QLD","cidade":"Lady Elliot Island","icao":"","iata":"LYT"}
{"_id":{"$oid":"57600fb1708b8de513b73e1a"},"nome":"Agnew Airport","latitude":-12.14560032,"longitude":142.1490021,"codPais":"AU","regiao":"AU-QLD","cidade":"Agnew","icao":"","iata":"AGW"}
{"_id":{"$oid":"57600fb1708b8de513b73e1b"},"nome":"Alroy Downs Airport","latitude":-19.29080009,"longitude":136.0789948,"codPais":"AU","regiao":"AU-NT","cidade":"Alroy Downs","icao":"","iata":"AYD"}
{"_id":{"$oid":"57600fb1708b8de513b73e1c"},"nome":"[Duplicate] Bolwarra Airport","latitude":-17.38829994,"longitude":144.1690063,"codPais":"AU","regiao":"AU-QLD","cidade":"Bolwarra","icao":"","iata":"BCK"}
{"_id":{"$oid":"57600fb1708b8de513b73e1d"},"nome":"[Duplicate] Bloomfield Airport","latitude":-15.87360001,"longitude":145.3300018,"codPais":"AU","regiao":"AU-QLD","cidade":"Bloomfield","icao":"","iata":"BFC"}
{"_id":{"$oid":"57600fb1708b8de513b73dcc"},"nome":"Aragip Airport","latitude":-9.883333333,"longitude":149.4833333,"codPais":"PG","regiao":"PG-MBA","cidade":"","icao":"","iata":"ARP"}
{"_id":{"$oid":"57600fb1708b8de513b73e1e"},"nome":"[Duplicate] Batavia Downs Airport","latitude":-12.65919971,"longitude":142.6750031,"codPais":"AU","regiao":"AU-QLD","cidade":"Batavia Downs","icao":"","iata":"BVW"}
{"_id":{"$oid":"57600fb1708b8de513b73e00"},"nome":"[Duplicate] Milyakburra Airport","latitude":-13.78083333,"longitude":136.2016667,"codPais":"AU","regiao":"AU-U-A","cidade":"Bickerton Island","icao":"","iata":"BCZ"}
{"_id":{"$oid":"57600fb1708b8de513b73e23"},"nome":"Carlton Hill Airport","latitude":-15.50189972,"longitude":128.5339966,"codPais":"AU","regiao":"AU-WA","cidade":"Carlton Hill","icao":"","iata":"CRY"}
{"_id":{"$oid":"57600fb1708b8de513b73e24"},"nome":"Coorabie Airport","latitude":-31.89439964,"longitude":132.2960052,"codPais":"AU","regiao":"AU-SA","cidade":"Coorabie","icao":"","iata":"CRJ"}
{"_id":{"$oid":"57600fb1708b8de513b73e25"},"nome":"Cresswell Downs Airport","latitude":-17.94799995,"longitude":135.9160004,"codPais":"AU","regiao":"AU-NT","cidade":"Cresswell Downs","icao":"","iata":"CSD"}
{"_id":{"$oid":"57600fb1708b8de513b73e27"},"nome":"[Duplicate] Cattle Creek Airport","latitude":-17.60700035,"longitude":131.548996,"codPais":"AU","regiao":"AU-NT","cidade":"Cattle Creek","icao":"","iata":"CTR"}
{"_id":{"$oid":"57600fb1708b8de513b73e20"},"nome":"Baniyala Airport","latitude":-13.19810009,"longitude":136.227005,"codPais":"AU","regiao":"AU-NT","cidade":"Baniyala","icao":"","iata":"BYX"}
{"_id":{"$oid":"57600fb1708b8de513b73e28"},"nome":"Diamantina Lakes Airport","latitude":-23.76169968,"longitude":141.1450043,"codPais":"AU","regiao":"AU-QLD","cidade":"Diamantina Lakes","icao":"","iata":"DYM"}
{"_id":{"$oid":"57600fb1708b8de513b73e21"},"nome":"Coolibah Airport","latitude":-15.54829979,"longitude":130.9620056,"codPais":"AU","regiao":"AU-NT","cidade":"Coolibah","icao":"","iata":"COB"}
{"_id":{"$oid":"57600fb1708b8de513b73e29"},"nome":"[Duplicate] Erldunda Airport","latitude":-25.2057991,"longitude":133.2539978,"codPais":"AU","regiao":"AU-NT","cidade":"Erldunda","icao":"","iata":"EDD"}
{"_id":{"$oid":"57600fb1708b8de513b73e22"},"nome":"[Duplicate] Cape Flattery Airport","latitude":-14.97099972,"longitude":145.3110046,"codPais":"AU","regiao":"AU-QLD","cidade":"Cape Flattery","icao":"","iata":"CQP"}
{"_id":{"$oid":"57600fb1708b8de513b73e2d"},"nome":"Kimberley Downs Airport","latitude":-17.39780045,"longitude":124.3550034,"codPais":"AU","regiao":"AU-WA","cidade":"Kimberley Downs","icao":"","iata":"KBD"}
{"_id":{"$oid":"57600fb1708b8de513b73e2c"},"nome":"[Duplicate] Elkedra Airport","latitude":-21.17250061,"longitude":135.4440002,"codPais":"AU","regiao":"AU-NT","cidade":"Elkedra","icao":"YELK","iata":"EKD"}
{"_id":{"$oid":"57600fb1708b8de513b73e2b"},"nome":"Hayman Island Resort Seaplane Base","latitude":-20.05999947,"longitude":148.8809967,"codPais":"AU","regiao":"AU-QLD","cidade":"Hayman Island","icao":"","iata":"HIS"}
{"_id":{"$oid":"57600fb1708b8de513b73e2f"},"nome":"[Duplicate] Heathlands Airport","latitude":-11.73690033,"longitude":142.5769959,"codPais":"AU","regiao":"AU-QLD","cidade":"Heathlands","icao":"","iata":"HAT"}
{"_id":{"$oid":"57600fb1708b8de513b73e2e"},"nome":"Kulgera Airport","latitude":-25.84280014,"longitude":133.2920074,"codPais":"AU","regiao":"AU-NT","cidade":"Kulgera","icao":"","iata":"KGR"}
{"_id":{"$oid":"57600fb1708b8de513b73e30"},"nome":"[Duplicate] Koolatah Airport","latitude":-15.88860035,"longitude":142.4389954,"codPais":"AU","regiao":"AU-QLD","cidade":"Koolatah","icao":"","iata":"KOH"}
{"_id":{"$oid":"57600fb1708b8de513b73e32"},"nome":"[Duplicate] Macdonald Downs Airport","latitude":-22.44400024,"longitude":135.1990051,"codPais":"AU","regiao":"AU-NT","cidade":"Macdonald Downs","icao":"","iata":"MNW"}
{"_id":{"$oid":"57600fb1708b8de513b73e31"},"nome":"Helenvale Airport","latitude":-15.6857996,"longitude":145.2149963,"codPais":"AU","regiao":"AU-QLD","cidade":"Helenvale","icao":"","iata":"HLV"}
{"_id":{"$oid":"57600fb1708b8de513b73e2a"},"nome":"[Duplicate] Highbury Airport","latitude":-16.42440033,"longitude":143.1459961,"codPais":"AU","regiao":"AU-QLD","cidade":"Highbury","icao":"","iata":"HIG"}
{"_id":{"$oid":"57600fb1708b8de513b73e35"},"nome":"[Duplicate] Yeelirrie Airport","latitude":-27.27689934,"longitude":120.0960007,"codPais":"AU","regiao":"AU-WA","cidade":"Yeelirrie","icao":"","iata":"KYF"}
{"_id":{"$oid":"57600fb1708b8de513b73e36"},"nome":"[Duplicate] Noonkanbah Airport","latitude":-18.49469948,"longitude":124.8519974,"codPais":"AU","regiao":"AU-WA","cidade":"Noonkanbah","icao":"","iata":"NKB"}
{"_id":{"$oid":"57600fb1708b8de513b73e37"},"nome":"Orchid Beach Airport","latitude":-24.95940018,"longitude":153.3150024,"codPais":"AU","regiao":"AU-QLD","cidade":"Orchid Beach","icao":"","iata":"OKB"}
{"_id":{"$oid":"57600fb1708b8de513b73e39"},"nome":"Rockhampton Downs Airport","latitude":-18.95330048,"longitude":135.201004,"codPais":"AU","regiao":"AU-NT","cidade":"Rockhampton Downs","icao":"","iata":"RDA"}
{"_id":{"$oid":"57600fb1708b8de513b73e38"},"nome":"Peppimenarti Airport","latitude":-14.14420033,"longitude":130.0910034,"codPais":"AU","regiao":"AU-NT","cidade":"Peppimenarti","icao":"","iata":"PEP"}
{"_id":{"$oid":"57600fb1708b8de513b73e3a"},"nome":"Sturt Creek Airport","latitude":-19.16640091,"longitude":128.173996,"codPais":"AU","regiao":"AU-WA","cidade":"Sturt Creek","icao":"","iata":"SSK"}
{"_id":{"$oid":"57600fb1708b8de513b73e33"},"nome":"[Duplicate] Mulga Park Airport","latitude":-25.86000061,"longitude":131.6499939,"codPais":"AU","regiao":"AU-NT","cidade":"Mulga Park","icao":"","iata":"MUP"}
{"_id":{"$oid":"57600fb1708b8de513b73e3d"},"nome":"Shaw River Airport","latitude":-21.51029968,"longitude":119.3619995,"codPais":"AU","regiao":"AU-WA","cidade":"Shaw River","icao":"","iata":"SWB"}
{"_id":{"$oid":"57600fb1708b8de513b73e3e"},"nome":"Tom Price Airport","latitude":-22.74600029,"longitude":117.8690033,"codPais":"AU","regiao":"AU-WA","cidade":"Tom Price","icao":"YTMP","iata":"TPR"}
{"_id":{"$oid":"57600fb1708b8de513b73e3c"},"nome":"Limbunya Airport","latitude":-17.23559952,"longitude":129.8820038,"codPais":"AU","regiao":"AU-NT","cidade":"Limbunya","icao":"","iata":"LIB"}
{"_id":{"$oid":"57600fb1708b8de513b73e3f"},"nome":"[Duplicate] Whitsunday Airstrip","latitude":-20.27611,"longitude":148755,"codPais":"AU","regiao":"AU-QLD","cidade":"Airlie Beach","icao":"","iata":"WSY"}
{"_id":{"$oid":"57600fb1708b8de513b73e41"},"nome":"Aua Island Airport","latitude":-1.460555556,"longitude":143.0647222,"codPais":"PG","regiao":"PG-MRL","cidade":"Aua Island","icao":"AYND","iata":"AUI"}
{"_id":{"$oid":"57600fb1708b8de513b73e40"},"nome":"Springvale Airport","latitude":-17.78689957,"longitude":127.6699982,"codPais":"AU","regiao":"AU-WA","cidade":"Springvale","icao":"","iata":"ZVG"}
{"_id":{"$oid":"57600fb1708b8de513b73e42"},"nome":"Ambunti Airport","latitude":-4.215666667,"longitude":142.8231667,"codPais":"PG","regiao":"PG-ESW","cidade":"Ambunti","icao":"AYAT","iata":"AUJ"}
{"_id":{"$oid":"57600fb1708b8de513b73e43"},"nome":"Torwood Airport","latitude":-17.36330032,"longitude":143.75,"codPais":"AU","regiao":"AU-QLD","cidade":"Torwood","icao":"","iata":"TWP"}
{"_id":{"$oid":"57600fb1708b8de513b73e44"},"nome":"Austin Robert Mueller Municipal","latitude":30.29872235,"longitude":-97.69978523,"codPais":"US","regiao":"US-TX","cidade":"","icao":"KAUS","iata":"AUS"}
{"_id":{"$oid":"57600fb1708b8de513b73e46"},"nome":"Alowe Airport","latitude":-0.538055556,"longitude":9.450277778,"codPais":"GA","regiao":"GA-3","cidade":"Wonga Wongue Reserve","icao":"","iata":"AWE"}
{"_id":{"$oid":"57600fb1708b8de513b73e45"},"nome":"Aumo Airport","latitude":-5.731111111,"longitude":148.4452778,"codPais":"PG","regiao":"PG-WBK","cidade":"Aumo","icao":"AYUM","iata":"AUV"}
{"_id":{"$oid":"57600fb1708b8de513b73e34"},"nome":"Miranda Downs Airport","latitude":-17.32889938,"longitude":141.8860016,"codPais":"AU","regiao":"AU-QLD","cidade":"Miranda Downs","icao":"","iata":"MWY"}
{"_id":{"$oid":"57600fb1708b8de513b73e47"},"nome":"Agaun Airport","latitude":-9.930833333,"longitude":149.3856667,"codPais":"PG","regiao":"PG-MBA","cidade":"","icao":"AYAG","iata":"AUP"}
{"_id":{"$oid":"57600fb1708b8de513b73e48"},"nome":"Awar Airport","latitude":-4124,"longitude":144853,"codPais":"PG","regiao":"PG-MPM","cidade":"Awar","icao":"","iata":"AWR"}
{"_id":{"$oid":"57600fb1708b8de513b73e49"},"nome":"Kompiam Airport","latitude":-5.381666667,"longitude":143.9247222,"codPais":"PG","regiao":"PG-EPW","cidade":"","icao":"AYAQ","iata":"KPM"}
{"_id":{"$oid":"57600fb1708b8de513b73e4c"},"nome":"[Duplicate] Warrawagine Airport","latitude":-20.84420013,"longitude":120.7020035,"codPais":"AU","regiao":"AU-WA","cidade":"Warrawagine","icao":"","iata":"WRW"}
{"_id":{"$oid":"57600fb1708b8de513b73e3b"},"nome":"Camballin Airport","latitude":-18.12470055,"longitude":124.2720032,"codPais":"AU","regiao":"AU-WA","cidade":"Myroodah","icao":"","iata":"MYO"}
{"_id":{"$oid":"57600fb1708b8de513b73e54"},"nome":"Kondobol Airport","latitude":-8.5336,"longitude":142.5049,"codPais":"PG","regiao":"PG-WPD","cidade":"Kondobol","icao":"AYDL","iata":"KPF"}
{"_id":{"$oid":"57600fb1708b8de513b73e55"},"nome":"Dinangat Airport","latitude":-6.1546,"longitude":146.6772,"codPais":"PG","regiao":"PG-MPL","cidade":"Dinangat","icao":"AYDN","iata":"DNU"}
{"_id":{"$oid":"57600fb1708b8de513b73e52"},"nome":"Chimbu Airport","latitude":-6.024290085,"longitude":144.970993,"codPais":"PG","regiao":"PG-CPK","cidade":"Kundiawa","icao":"AYCH","iata":"CMU"}
{"_id":{"$oid":"57600fb1708b8de513b73e56"},"nome":"Doini Airport","latitude":-10.7009,"longitude":150.7218,"codPais":"PG","regiao":"PG-MBA","cidade":"Castori Islets","icao":"AYDO","iata":"DOI"}
{"_id":{"$oid":"57600fb1708b8de513b73e58"},"nome":"Biaru Airport","latitude":-7.6693,"longitude":146.7594,"codPais":"PG","regiao":"PG-MPL","cidade":"Biaru","icao":"AYBR","iata":"BRP"}
{"_id":{"$oid":"57600fb1708b8de513b73e5d"},"nome":"Embessa Airport","latitude":-9447,"longitude":148.7628,"codPais":"PG","regiao":"PG-NPP","cidade":"Embessa","icao":"AYEB","iata":"EMS"}
{"_id":{"$oid":"57600fb1708b8de513b73e5e"},"nome":"Edwaki Airport","latitude":-3.883986,"longitude":141.792234,"codPais":"PG","regiao":"PG-SAN","cidade":"Yellow River Mission","icao":"AYED","iata":"XYR"}
{"_id":{"$oid":"57600fb1708b8de513b73e63"},"nome":"Daru Airport","latitude":-9.086759567,"longitude":143.2079926,"codPais":"PG","regiao":"PG-WPD","cidade":"Daru","icao":"AYDU","iata":"DAU"}
{"_id":{"$oid":"57600fb1708b8de513b73e64"},"nome":"Eliptamin Airport","latitude":-5.0412,"longitude":141.6779,"codPais":"PG","regiao":"PG-SAN","cidade":"Eliptamin","icao":"AYEL","iata":"EPT"}
{"_id":{"$oid":"57600fb1708b8de513b73e66"},"nome":"Erume Airport","latitude":-8.2538,"longitude":146.9747,"codPais":"PG","regiao":"PG-CPM","cidade":"Erume","icao":"AYER","iata":"ERU"}
{"_id":{"$oid":"57600fb1708b8de513b73e69"},"nome":"Feramin Airport","latitude":-5208,"longitude":141.6988,"codPais":"PG","regiao":"PG-SAN","cidade":"Feramin","icao":"AYFE","iata":"FRQ"}
{"_id":{"$oid":"57600fb1708b8de513b73e68"},"nome":"Engati Airstrip","latitude":-6.9179,"longitude":146.1053,"codPais":"PG","regiao":"PG-MPL","cidade":"Engati","icao":"AYEN","iata":"EGA"}
{"_id":{"$oid":"57600fb1708b8de513b73e6c"},"nome":"Frieda River Airport","latitude":-4.610468,"longitude":141.960138,"codPais":"PG","regiao":"PG-ESW","cidade":"Frieda River","icao":"AYFR","iata":"FAQ"}
{"_id":{"$oid":"57600fb1708b8de513b73e6d"},"nome":"Emo River Airstrip","latitude":-9.1234,"longitude":148.0415,"codPais":"PG","regiao":"PG-NPP","cidade":"Emo Mission","icao":"AYEO","iata":"EMO"}
{"_id":{"$oid":"57600fb1708b8de513b73e71"},"nome":"Goroka Airport","latitude":-6.081689835,"longitude":145.3919983,"codPais":"PG","regiao":"PG-EHG","cidade":"Goronka","icao":"AYGA","iata":"GKA"}
{"_id":{"$oid":"57600fb1708b8de513b73e74"},"nome":"Guari Airport","latitude":-8.1286,"longitude":146.8722,"codPais":"PG","regiao":"PG-CPM","cidade":"Guari","icao":"AYGF","iata":"GUG"}
{"_id":{"$oid":"57600fb1708b8de513b73e75"},"nome":"Garasa Airport","latitude":-7.980713,"longitude":147.213461,"codPais":"PG","regiao":"PG-MPL","cidade":"Au","icao":"AYGG","iata":"GRL"}
{"_id":{"$oid":"57600fb1708b8de513b73e7b"},"nome":"Girua Airport","latitude":-8.80453968,"longitude":148.3090057,"codPais":"PG","regiao":"PG-NPP","cidade":"Popondetta","icao":"AYGR","iata":"PNP"}
{"_id":{"$oid":"57600fb1708b8de513b73e78"},"nome":"Gurney Airport","latitude":-10.3114996,"longitude":150.3339996,"codPais":"PG","regiao":"PG-MBA","cidade":"Gurney","icao":"AYGN","iata":"GUR"}
{"_id":{"$oid":"57600fb1708b8de513b73e7c"},"nome":"Gasuke Airport","latitude":-6.1028,"longitude":141.7393,"codPais":"PG","regiao":"PG-WPD","cidade":"Gasuke","icao":"AYGS","iata":"GBC"}
{"_id":{"$oid":"57600fb1708b8de513b73e6e"},"nome":"Fuma Airport","latitude":-6.3933,"longitude":142.4408,"codPais":"PG","regiao":"PG-WPD","cidade":"Fuma","icao":"AYFU","iata":"FUM"}
{"_id":{"$oid":"57600fb1708b8de513b73e83"},"nome":"Heiweni Airport","latitude":-7.4223,"longitude":146.4276,"codPais":"PG","regiao":"PG-MPL","cidade":"Heiweni","icao":"AYHE","iata":"HNI"}
{"_id":{"$oid":"57600fb1708b8de513b73e84"},"nome":"Honinabi Airport","latitude":-16.2457,"longitude":142.1771,"codPais":"PG","regiao":"PG-WPD","cidade":"Honinabi","icao":"AYHH","iata":"HNN"}
{"_id":{"$oid":"57600fb1708b8de513b73e82"},"nome":"Habi Airport","latitude":-6.32,"longitude":142.4893,"codPais":"PG","regiao":"PG-WPD","cidade":"Habi","icao":"AYHB","iata":"HBD"}
{"_id":{"$oid":"57600fb1708b8de513b73e87"},"nome":"Haivaro Airport","latitude":-6.9406,"longitude":143059,"codPais":"PG","regiao":"PG-GPK","cidade":"Haivaro","icao":"AYHO","iata":"HIT"}
{"_id":{"$oid":"57600fb1708b8de513b73e8e"},"nome":"Imane Airport","latitude":-6.7524,"longitude":146.1072,"codPais":"PG","regiao":"PG-MPL","cidade":"Imane","icao":"AYII","iata":"IMN"}
{"_id":{"$oid":"57600fb1708b8de513b73e8a"},"nome":"Kimbe Airport","latitude":-5.462170124,"longitude":150.4049988,"codPais":"PG","regiao":"PG-WBK","cidade":"Hoskins","icao":"AYHK","iata":"HKN"}
{"_id":{"$oid":"57600fb1708b8de513b73e8f"},"nome":"Kungim Airport","latitude":-5671,"longitude":141.03,"codPais":"PG","regiao":"PG-WPD","cidade":"Kungim","icao":"AYIM","iata":"KGM"}
{"_id":{"$oid":"57600fb1708b8de513b73e4d"},"nome":"Buka Airport","latitude":-5.422319889,"longitude":154.6730042,"codPais":"PG","regiao":"PG-NSB","cidade":"Buka Island","icao":"AYBK","iata":"BUA"}
{"_id":{"$oid":"57600fb1708b8de513b73e7d"},"nome":"Gusap Airport","latitude":-6.053196,"longitude":145.959047,"codPais":"PG","regiao":"PG-GPK","cidade":"Gusap","icao":"AYGP","iata":"GAP"}
{"_id":{"$oid":"57600fb1708b8de513b73e98"},"nome":"Yongai Airport","latitude":-8.5289,"longitude":147.4603,"codPais":"PG","regiao":"PG-CPM","cidade":"Yongai","icao":"AYJO","iata":"KGH"}
{"_id":{"$oid":"57600fb1708b8de513b73e91"},"nome":"Imonda Airport","latitude":-3328,"longitude":141.1573,"codPais":"PG","regiao":"PG-SAN","cidade":"Imonda","icao":"AYIO","iata":"IMD"}
{"_id":{"$oid":"57600fb1708b8de513b73e9b"},"nome":"Kiunga Airport","latitude":-6.125710011,"longitude":141.2819977,"codPais":"PG","regiao":"PG-WPD","cidade":"Kiunga","icao":"AYKI","iata":"UNG"}
{"_id":{"$oid":"57600fb1708b8de513b73e9a"},"nome":"Kopiago Airport","latitude":-5.3883,"longitude":142.4977,"codPais":"PG","regiao":"PG-HE","cidade":"Kopiago","icao":"AYKG","iata":"KPA"}
{"_id":{"$oid":"57600fb1708b8de513b73e9d"},"nome":"Kikori Airport","latitude":-7.424379826,"longitude":144.2500763,"codPais":"PG","regiao":"PG-GPK","cidade":"Kikori","icao":"AYKK","iata":"KRI"}
{"_id":{"$oid":"57600fb1708b8de513b73e9c"},"nome":"Kanainj Airport","latitude":-5.2903,"longitude":144.7072,"codPais":"PG","regiao":"PG-MPM","cidade":"Kanainj","icao":"AYKJ","iata":"KNE"}
{"_id":{"$oid":"57600fb1708b8de513b73e96"},"nome":"Ialibu Airport","latitude":-6.2782,"longitude":143.9944,"codPais":"PG","regiao":"PG-SHM","cidade":"Ialibu","icao":"AYIU","iata":"IAL"}
{"_id":{"$oid":"57600fb1708b8de513b73ea0"},"nome":"Kerema Airport","latitude":-7.963610172,"longitude":145.7709961,"codPais":"PG","regiao":"PG-GPK","cidade":"Kerema","icao":"AYKM","iata":"KMA"}
{"_id":{"$oid":"57600fb1708b8de513b73ea4"},"nome":"Kavieng Airport","latitude":-2.579400063,"longitude":150.8079987,"codPais":"PG","regiao":"PG-NIK","cidade":"Kavieng","icao":"AYKV","iata":"KVG"}
{"_id":{"$oid":"57600fb1708b8de513b73ea5"},"nome":"Londolovit Airport","latitude":-3.043610096,"longitude":152.6289978,"codPais":"PG","regiao":"PG-NIK","cidade":"Londolovit","icao":"AYKY","iata":"LNV"}
{"_id":{"$oid":"57600fb1708b8de513b73ea8"},"nome":"Lab Lab Airport","latitude":-5.7204,"longitude":148.0566,"codPais":"PG","regiao":"PG-MPL","cidade":"Lab Lab Mission","icao":"AYLB","iata":"LAB"}
{"_id":{"$oid":"57600fb1708b8de513b73eaa"},"nome":"Lowai Airport","latitude":-6.3344,"longitude":146.6458,"codPais":"PG","regiao":"PG-MPL","cidade":"Lowai","icao":"AYLO","iata":"LWI"}
{"_id":{"$oid":"57600fb1708b8de513b73ead"},"nome":"Kar Kar Airport","latitude":-4557,"longitude":145.9404,"codPais":"PG","regiao":"PG-MPM","cidade":"Kar Kar Island","icao":"AYKR","iata":"KRX"}
{"_id":{"$oid":"57600fb1708b8de513b73ea2"},"nome":"Kieta Airport","latitude":-6.305416667,"longitude":155.7281389,"codPais":"PG","regiao":"PG-NSB","cidade":"Kieta","icao":"","iata":"KIE"}
{"_id":{"$oid":"57600fb1708b8de513b73ea1"},"nome":"Losuia Airport","latitude":-8.505820274,"longitude":151.0809937,"codPais":"PG","regiao":"PG-MBA","cidade":"Losuia","icao":"AYKA","iata":"LSA"}
{"_id":{"$oid":"57600fb1708b8de513b73eaf"},"nome":"Morobe Airport","latitude":-7.74,"longitude":147.59,"codPais":"PG","regiao":"PG-MPL","cidade":"Morobe","icao":"AYMB","iata":"OBM"}
{"_id":{"$oid":"57600fb1708b8de513b73eb0"},"nome":"Madang Airport","latitude":-5.207079887,"longitude":145.7890015,"codPais":"PG","regiao":"PG-MPM","cidade":"Madang","icao":"AYMD","iata":"MAG"}
{"_id":{"$oid":"57600fb1708b8de513b73eb2"},"nome":"Mendi Airport","latitude":-6.147739887,"longitude":143.6569977,"codPais":"PG","regiao":"PG-SHM","cidade":"","icao":"AYMN","iata":"MDU"}
{"_id":{"$oid":"57600fb1708b8de513b73eb3"},"nome":"Mougulu Airport","latitude":-6.280859,"longitude":142.420775,"codPais":"PG","regiao":"PG-WPD","cidade":"Mougulu","icao":"AYML","iata":"GUV"}
{"_id":{"$oid":"57600fb1708b8de513b73eb4"},"nome":"Moro Airport","latitude":-6.363329887,"longitude":143.2380066,"codPais":"PG","regiao":"PG-SHM","cidade":"Moro","icao":"AYMR","iata":"MXH"}
{"_id":{"$oid":"57600fb1708b8de513b73ea3"},"nome":"Kuri Airport","latitude":-7.135083,"longitude":143.276111,"codPais":"PG","regiao":"PG-GPK","cidade":"Kuri","icao":"AYKU","iata":"KUQ"}
{"_id":{"$oid":"57600fb1708b8de513b73eb8"},"nome":"Marawaka Airport","latitude":-6.9736,"longitude":145.8849,"codPais":"PG","regiao":"PG-EHG","cidade":"Marawaka","icao":"AYMW","iata":"MWG"}
{"_id":{"$oid":"57600fb1708b8de513b73eb9"},"nome":"Manguna Airport","latitude":-5.577778,"longitude":151.792333,"codPais":"PG","regiao":"PG-EBR","cidade":"Manguna","icao":"AYNG","iata":"MFO"}
{"_id":{"$oid":"57600fb1708b8de513b73eb6"},"nome":"Misima Island Airport","latitude":-10.6892004,"longitude":152.8379974,"codPais":"PG","regiao":"PG-MBA","cidade":"Misima Island","icao":"AYMS","iata":"MIS"}
{"_id":{"$oid":"57600fb1708b8de513b73eba"},"nome":"Kasonombe Airport","latitude":-6.3819,"longitude":146.9859,"codPais":"PG","regiao":"PG-MPL","cidade":"Kasonombe","icao":"AYNM","iata":"KSB"}
{"_id":{"$oid":"57600fb1708b8de513b73ebd"},"nome":"Nambaiyufa Airport","latitude":-6.2412,"longitude":145.2424,"codPais":"PG","regiao":"PG-CPK","cidade":"Nambaiyufa","icao":"AYNY","iata":"NBA"}
{"_id":{"$oid":"57600fb1708b8de513b73ebe"},"nome":"Lae Nadzab Airport","latitude":-6.569829941,"longitude":146.7259979,"codPais":"PG","regiao":"PG-MPL","cidade":"Nadzab","icao":"AYNZ","iata":"LAE"}
{"_id":{"$oid":"57600fb1708b8de513b73ec1"},"nome":"Konge Airport","latitude":-6.2239,"longitude":147.2152,"codPais":"PG","regiao":"PG-MPL","cidade":"Konge","icao":"AYOE","iata":"KGB"}
{"_id":{"$oid":"57600fb1708b8de513b73eb5"},"nome":"Momote Airport","latitude":-2.061889887,"longitude":147.423996,"codPais":"PG","regiao":"PG-MRL","cidade":"","icao":"AYMO","iata":"MAS"}
{"_id":{"$oid":"57600fb1708b8de513b73eb7"},"nome":"Mount Hagen Kagamuga Airport","latitude":-5.826789856,"longitude":144.2960052,"codPais":"PG","regiao":"PG-WHM","cidade":"Mount Hagen","icao":"AYMH","iata":"HGU"}
{"_id":{"$oid":"57600fb1708b8de513b73ec3"},"nome":"Oksapmin Airport","latitude":-5.2261,"longitude":142.2259,"codPais":"PG","regiao":"PG-SAN","cidade":"Oksapmin","icao":"AYOJ","iata":"OKP"}
{"_id":{"$oid":"57600fb1708b8de513b73ec5"},"nome":"Komaio Airport","latitude":-7.2714,"longitude":143.5952,"codPais":"PG","regiao":"PG-GPK","cidade":"Komaio","icao":"AYOQ","iata":"KCJ"}
{"_id":{"$oid":"57600fb1708b8de513b73ec6"},"nome":"Nomane Airport","latitude":-6.32183,"longitude":145.070667,"codPais":"PG","regiao":"PG-CPK","cidade":"Namane","icao":"AYNO","iata":"NMN"}
{"_id":{"$oid":"57600fb1708b8de513b73ece"},"nome":"Mapoda Airport","latitude":-7979,"longitude":143.1694,"codPais":"PG","regiao":"PG-WPD","cidade":"Mapoda","icao":"AYPO","iata":"MPF"}
{"_id":{"$oid":"57600fb1708b8de513b73ecc"},"nome":"Pangoa Airport","latitude":-7.0226,"longitude":141.5605,"codPais":"PG","regiao":"PG-WPD","cidade":"Pangoa","icao":"AYPC","iata":"PGB"}
{"_id":{"$oid":"57600fb1708b8de513b73ed1"},"nome":"Koroba Airport","latitude":-5.6952,"longitude":142.7441,"codPais":"PG","regiao":"PG-HE","cidade":"Koroba","icao":"AYOW","iata":"KDE"}
{"_id":{"$oid":"57600fb1708b8de513b73ed0"},"nome":"Pumani Airport","latitude":-9.7469,"longitude":149.4766,"codPais":"PG","regiao":"PG-MBA","cidade":"Pumani","icao":"AYPQ","iata":"PMN"}
{"_id":{"$oid":"57600fb1708b8de513b73ec4"},"nome":"Komako Airport","latitude":-7.3984,"longitude":145.8827,"codPais":"PG","regiao":"PG-GPK","cidade":"Komako","icao":"AYOK","iata":"HOC"}
{"_id":{"$oid":"57600fb1708b8de513b73edc"},"nome":"Karimui Airport","latitude":-6.4921,"longitude":144823,"codPais":"PG","regiao":"PG-CPK","cidade":"Karimui","icao":"AYRI","iata":"KMR"}
{"_id":{"$oid":"57600fb1708b8de513b73ede"},"nome":"Sopu Airport","latitude":-8.3038,"longitude":147.1659,"codPais":"PG","regiao":"PG-CPM","cidade":"Sopu","icao":"AYQO","iata":"SPH"}
{"_id":{"$oid":"57600fb1708b8de513b73edf"},"nome":"Sialum Airport","latitude":-6.0908,"longitude":147.5955,"codPais":"PG","regiao":"PG-MPL","cidade":"Sialum","icao":"AYQS","iata":"SXA"}
{"_id":{"$oid":"57600fb1708b8de513b73ec2"},"nome":"Negarbo(Negabo) Airport","latitude":-6.567778,"longitude":144.703058,"codPais":"PG","regiao":"PG-CPK","cidade":"Negarbo","icao":"AYNE","iata":"GBF"}
{"_id":{"$oid":"57600fb1708b8de513b73ee1"},"nome":"Maramuni Airport","latitude":-5.13,"longitude":143.4829,"codPais":"PG","regiao":"PG-EPW","cidade":"Maramuni","icao":"AYRM","iata":"MWI"}
{"_id":{"$oid":"57600fb1708b8de513b73ee2"},"nome":"May River Airstrip","latitude":-4.3615,"longitude":141785,"codPais":"PG","regiao":"PG-ESW","cidade":"May River","icao":"AYRV","iata":"MRH"}
{"_id":{"$oid":"57600fb1708b8de513b73ee4"},"nome":"Suabi Airport","latitude":-6.104444444,"longitude":142.2783333,"codPais":"PG","regiao":"PG-WPD","cidade":"","icao":"AYSA","iata":"SBE"}
{"_id":{"$oid":"57600fb1708b8de513b73edb"},"nome":"Rumginae Airport","latitude":-5.897222222,"longitude":141.2716667,"codPais":"PG","regiao":"PG-WPD","cidade":"","icao":"AYRG","iata":"RMN"}
{"_id":{"$oid":"57600fb1708b8de513b73ed4"},"nome":"Port Moresby Jacksons International Airport","latitude":-9.443380356,"longitude":147.2200012,"codPais":"PG","regiao":"PG-NCD","cidade":"Port Moresby","icao":"AYPY","iata":"POM"}
{"_id":{"$oid":"57600fb1708b8de513b73ee6"},"nome":"Simberi Airport","latitude":-2.662222222,"longitude":151.9977778,"codPais":"PG","regiao":"PG-NIK","cidade":"Simberi Island","icao":"AYSE","iata":"NIS"}
{"_id":{"$oid":"57600fb1708b8de513b73eee"},"nome":"Selbang Airport","latitude":-5315,"longitude":141752,"codPais":"PG","regiao":"PG-WPD","cidade":"Selbang","icao":"AYSO","iata":"SBC"}
{"_id":{"$oid":"57600fb1708b8de513b73eec"},"nome":"Simbai Airport","latitude":-5.278611111,"longitude":144.5447222,"codPais":"PG","regiao":"PG-MPM","cidade":"Simbai","icao":"AYSJ","iata":"SIM"}
{"_id":{"$oid":"57600fb1708b8de513b73ef2"},"nome":"Tari Airport","latitude":-5.84499979,"longitude":142.947998,"codPais":"PG","regiao":"PG-HE","cidade":"Tari","icao":"AYTA","iata":"TIZ"}
{"_id":{"$oid":"57600fb1708b8de513b73ef4"},"nome":"Tabubil Airport","latitude":-5.278610229,"longitude":141.2259979,"codPais":"PG","regiao":"PG-WPD","cidade":"Tabubil","icao":"AYTB","iata":"TBG"}
{"_id":{"$oid":"57600fb1708b8de513b73ef6"},"nome":"Tapini Airport","latitude":-8.356666667,"longitude":146.9891667,"codPais":"PG","regiao":"PG-CPM","cidade":"Tapini","icao":"AYTI","iata":"TPI"}
{"_id":{"$oid":"57600fb1708b8de513b73ef7"},"nome":"Tokua Airport","latitude":-4.340459824,"longitude":152.3800049,"codPais":"PG","regiao":"PG-EBR","cidade":"Tokua","icao":"AYTK","iata":"RAB"}
{"_id":{"$oid":"57600fb1708b8de513b73ee7"},"nome":"Sila Airport","latitude":-9.073555556,"longitude":148.38925,"codPais":"PG","regiao":"PG-NPP","cidade":"Sila Mission","icao":"AYSG","iata":"SIL"}
{"_id":{"$oid":"57600fb1708b8de513b73efc"},"nome":"Tekin Airport","latitude":-5.243666667,"longitude":142.1651944,"codPais":"PG","regiao":"PG-SAN","cidade":"Tekin","icao":"AYTN","iata":"TKW"}
{"_id":{"$oid":"57600fb1708b8de513b73ee8"},"nome":"Sabah Airport","latitude":-5.5765,"longitude":155.0489,"codPais":"PG","regiao":"PG-NSB","cidade":"Sabah","icao":"AYSH","iata":"SBV"}
{"_id":{"$oid":"57600fb1708b8de513b73efd"},"nome":"Tep Tep Airport","latitude":-5.9553,"longitude":146.5595,"codPais":"PG","regiao":"PG-MPM","cidade":"Teptep","icao":"AYTP","iata":"TEP"}
{"_id":{"$oid":"57600fb1708b8de513b73f02"},"nome":"Umba Airport","latitude":-7.0214,"longitude":145966,"codPais":"PG","regiao":"PG-MPL","cidade":"Umba","icao":"AYUC","iata":"UMC"}
{"_id":{"$oid":"57600fb1708b8de513b73f04"},"nome":"Uroubi Airport","latitude":-9.5162,"longitude":148.5591,"codPais":"PG","regiao":"PG-NPP","cidade":"Uroubi","icao":"AYUE","iata":"URU"}
{"_id":{"$oid":"57600fb1708b8de513b73f07"},"nome":"Tawa Airport","latitude":-7.4463,"longitude":146.1067,"codPais":"PG","regiao":"PG-MPL","cidade":"Tawa","icao":"AYTW","iata":"TWY"}
{"_id":{"$oid":"57600fb1708b8de513b73f08"},"nome":"Tekadu Airport","latitude":-7.6808,"longitude":146.5503,"codPais":"PG","regiao":"PG-MPL","cidade":"Tekadu","icao":"AYTZ","iata":"TKB"}
{"_id":{"$oid":"57600fb1708b8de513b73f09"},"nome":"Aiyura Airport","latitude":-6.338055556,"longitude":145.9041667,"codPais":"PG","regiao":"PG-EHG","cidade":"Aiyura Valley","icao":"AYAY","iata":"AYU"}
{"_id":{"$oid":"57600fb1708b8de513b73f12"},"nome":"Torembi Airport","latitude":-4.0165,"longitude":143.1329,"codPais":"PG","regiao":"PG-ESW","cidade":"Torembi","icao":"AYVM","iata":"TCJ"}
{"_id":{"$oid":"57600fb1708b8de513b73eff"},"nome":"Tsewi Airport","latitude":-7.0695,"longitude":146.1272,"codPais":"PG","regiao":"PG-MPL","cidade":"Tsewi","icao":"AYTS","iata":"TSW"}
{"_id":{"$oid":"57600fb1708b8de513b73f00"},"nome":"Tarakbits Airport","latitude":-5614,"longitude":141.0421,"codPais":"PG","regiao":"PG-WPD","cidade":"Tarakbits","icao":"AYTT","iata":"TRJ"}
{"_id":{"$oid":"57600fb1708b8de513b73f14"},"nome":"Tonu Airport","latitude":-6.6552,"longitude":155.4326,"codPais":"PG","regiao":"PG-NSB","cidade":"Tonu","icao":"AYVO","iata":"TON"}
{"_id":{"$oid":"57600fb1708b8de513b73f13"},"nome":"Vanimo Airport","latitude":-2.697170019,"longitude":141.302002,"codPais":"PG","regiao":"PG-SAN","cidade":"","icao":"AYVN","iata":"VAI"}
{"_id":{"$oid":"57600fb1708b8de513b73f16"},"nome":"Wabo Airport","latitude":-6.989444444,"longitude":145.0751111,"codPais":"PG","regiao":"PG-GPK","cidade":"Wabo","icao":"AYWB","iata":"WAO"}
{"_id":{"$oid":"57600fb1708b8de513b73f18"},"nome":"Wapenamanda Airport","latitude":-5.643300056,"longitude":143.8950043,"codPais":"PG","regiao":"PG-EPW","cidade":"","icao":"AYWD","iata":"WBM"}
{"_id":{"$oid":"57600fb1708b8de513b73f19"},"nome":"Upiara Airport","latitude":-8.5411,"longitude":142.6503,"codPais":"PG","regiao":"PG-WPD","cidade":"Upiara","icao":"AYUR","iata":"UPR"}
{"_id":{"$oid":"57600fb1708b8de513b73f1a"},"nome":"Wewak International Airport","latitude":-3.583830118,"longitude":143.6690063,"codPais":"PG","regiao":"PG-ESW","cidade":"Wewak","icao":"AYWK","iata":"WWK"}
{"_id":{"$oid":"57600fb1708b8de513b73f1b"},"nome":"Uvol Airport","latitude":-6.0178,"longitude":150.9557,"codPais":"PG","regiao":"PG-EBR","cidade":"Uvol","icao":"AYUZ","iata":"UVO"}
{"_id":{"$oid":"57600fb1708b8de513b73f1d"},"nome":"Wonenara Airport","latitude":-6.796861111,"longitude":145.8919444,"codPais":"PG","regiao":"PG-EHG","cidade":"Wonenara","icao":"AYWO","iata":"WOA"}
{"_id":{"$oid":"57600fb1708b8de513b73f23"},"nome":"Sim Airport","latitude":-7.75,"longitude":146.9273,"codPais":"PG","regiao":"PG-MPL","cidade":"Sim","icao":"AYXI","iata":"SMJ"}
{"_id":{"$oid":"57600fb1708b8de513b73f21"},"nome":"Yeva Airport","latitude":-7548,"longitude":146188,"codPais":"PG","regiao":"PG-MPL","cidade":"Yeva","icao":"AYXE","iata":"YVD"}
{"_id":{"$oid":"57600fb1708b8de513b73f26"},"nome":"Wasu Airport","latitude":-5.961709449,"longitude":147.1982253,"codPais":"PG","regiao":"PG-MPL","cidade":"Wasu","icao":"AYWS","iata":"WSU"}
{"_id":{"$oid":"57600fb1708b8de513b73f27"},"nome":"Arugam Bay SPB","latitude":6.86,"longitude":81.82388889,"codPais":"LK","regiao":"LK-5","cidade":"Pottuvil","icao":"","iata":"AYY"}
{"_id":{"$oid":"57600fb1708b8de513b73f2c"},"nome":"Yasuru Airport","latitude":-6.6015,"longitude":146.1813,"codPais":"PG","regiao":"PG-MPL","cidade":"Yasuru","icao":"AYYR","iata":"KSX"}
{"_id":{"$oid":"57600fb1708b8de513b73f31"},"nome":"Zahn's Airport","latitude":40.71,"longitude":-73.4,"codPais":"US","regiao":"US-NY","cidade":"Amityville","icao":"","iata":"AYZ"}
{"_id":{"$oid":"57600fb1708b8de513b73f39"},"nome":"Yalumet Airport","latitude":-6.09,"longitude":147.0117,"codPais":"PG","regiao":"PG-MPL","cidade":"Yalumet","icao":"AYYE","iata":"KYX"}
{"_id":{"$oid":"57600fb1708b8de513b73f1e"},"nome":"Wau Airport","latitude":-7.345555556,"longitude":146.7186111,"codPais":"PG","regiao":"PG-SAN","cidade":"Wau","icao":"AYWU","iata":"WUG"}
{"_id":{"$oid":"57600fb1708b8de513b73f1f"},"nome":"Woitape Airport","latitude":-8.545833333,"longitude":147.2525,"codPais":"PG","regiao":"PG-CPM","cidade":"Fatima Mission","icao":"AYWT","iata":"WTP"}
{"_id":{"$oid":"57600fb1708b8de513b73fbc"},"nome":"Bali Airport","latitude":-4.883333333,"longitude":149.1333333,"codPais":"PG","regiao":"PG-WBK","cidade":"Unea Island","icao":"","iata":"BAJ"}
{"_id":{"$oid":"57600fb1708b8de513b73fb3"},"nome":"Amazon Bay Airport","latitude":-10.29916667,"longitude":149.3383333,"codPais":"PG","regiao":"PG-CPM","cidade":"","icao":"","iata":"AZB"}
{"_id":{"$oid":"57600fb1708b8de513b73fbd"},"nome":"Baibara Airport","latitude":-10.3432,"longitude":149.6414,"codPais":"PG","regiao":"PG-CPM","cidade":"Nabai","icao":"","iata":"BAP"}
{"_id":{"$oid":"57600fb1708b8de513b73fbe"},"nome":"Branson Airport","latitude":36.532082,"longitude":-93.200544,"codPais":"US","regiao":"US-MO","cidade":"Branson","icao":"KBBG","iata":"BKG"}
{"_id":{"$oid":"57600fb1708b8de513b73fbf"},"nome":"Baca Grande Airfield","latitude":37.96477778,"longitude":-105.7766667,"codPais":"US","regiao":"US-CO","cidade":"Crestone","icao":"","iata":"BCJ"}
{"_id":{"$oid":"57600fb1708b8de513b73fc0"},"nome":"Bambu Airport","latitude":-5.863611111,"longitude":146.4925,"codPais":"PG","regiao":"PG-MPM","cidade":"Bambu","icao":"AYBC","iata":"BCP"}
{"_id":{"$oid":"57600fb1708b8de513b73fc1"},"nome":"Benguera Island Airport","latitude":-21.85330009,"longitude":35.43830109,"codPais":"MZ","regiao":"MZ-I","cidade":"Benguera Island","icao":"","iata":"BCW"}
{"_id":{"$oid":"57600fb1708b8de513b73f40"},"nome":"Zabrat Airport","latitude":40.49554222,"longitude":49.97680664,"codPais":"AZ","regiao":"AZ-BA","cidade":"Baku","icao":"","iata":"ZXT"}
{"_id":{"$oid":"57600fb1708b8de513b73f5c"},"nome":"Lava Falls Heliport","latitude":36.1916008,"longitude":-113.0920029,"codPais":"US","regiao":"US-AZ","cidade":"Supai Village","icao":"AZ15","iata":"HAE"}
{"_id":{"$oid":"57600fb1708b8de513b73fcc"},"nome":"Baindoung Airport","latitude":-6.347222222,"longitude":146.9422222,"codPais":"PG","regiao":"PG-MPL","cidade":"","icao":"AYBG","iata":"BDZ"}
{"_id":{"$oid":"57600fb1708b8de513b73fcd"},"nome":"Bereina Airport","latitude":-8.64,"longitude":146.5083,"codPais":"PG","regiao":"PG-CPM","cidade":"Bereina Mission","icao":"","iata":"BEA"}
{"_id":{"$oid":"57600fb1708b8de513b73fce"},"nome":"Milyakburra Airport","latitude":-13.78083333,"longitude":136.2016667,"codPais":"AU","regiao":"AU-NT","cidade":"Bickerton Island","icao":"","iata":"BCZ"}
{"_id":{"$oid":"57600fb1708b8de513b73fd0"},"nome":"Berlin Brandenburg Airport (U.C.)","latitude":52.35138889,"longitude":13.49388889,"codPais":"DE","regiao":"DE-BR","cidade":"Berlin","icao":"EDDB","iata":"BER"}
{"_id":{"$oid":"57600fb1708b8de513b73fe4"},"nome":"Malevo Airport","latitude":41.87179947,"longitude":25.60479927,"codPais":"BG","regiao":"BG-26","cidade":"Haskovo","icao":"","iata":"HKV"}
{"_id":{"$oid":"57600fb1708b8de513b73fe5"},"nome":"Bezmer Air Base","latitude":42.45489883,"longitude":26.35219955,"codPais":"BG","regiao":"BG-28","cidade":"Yambol","icao":"LBIA","iata":"JAM"}
{"_id":{"$oid":"57600fb1708b8de513b73fcb"},"nome":"Willmar Municipal -John L Rice Field","latitude":45.11769867,"longitude":-95.13040161,"codPais":"US","regiao":"US-MN","cidade":"Willmar","icao":"KBDH","iata":"ILL"}
{"_id":{"$oid":"57600fb1708b8de513b73feb"},"nome":"Tasiilaq Heliport","latitude":65.61229608,"longitude":-37.61833549,"codPais":"GL","regiao":"GL-U-A","cidade":"Tasiilaq","icao":"BGAM","iata":"AGM"}
{"_id":{"$oid":"57600fb1708b8de513b73fec"},"nome":"Arsuk Heliport","latitude":61.17677066,"longitude":-48.41971993,"codPais":"GL","regiao":"GL-U-A","cidade":"","icao":"BGAR","iata":"JRK"}
{"_id":{"$oid":"57600fb1708b8de513b73fed"},"nome":"Ammassivik Heliport","latitude":60.5973758,"longitude":-45.38244545,"codPais":"GL","regiao":"GL-U-A","cidade":"","icao":"BGAS","iata":"QUW"}
{"_id":{"$oid":"57600fb1708b8de513b73fee"},"nome":"Attu Heliport","latitude":67.94066286,"longitude":-53.62186968,"codPais":"GL","regiao":"GL-U-A","cidade":"Attu","icao":"BGAT","iata":"QGQ"}
{"_id":{"$oid":"57600fb1708b8de513b73fe9"},"nome":"Aasiaat Airport","latitude":68.72180176,"longitude":-52.78469849,"codPais":"GL","regiao":"GL-U-A","cidade":"Aasiaat","icao":"BGAA","iata":"JEG"}
{"_id":{"$oid":"57600fb1708b8de513b73fef"},"nome":"Narsarsuaq Airport","latitude":61.16049957,"longitude":-45.42599869,"codPais":"GL","regiao":"GL-U-A","cidade":"Narsarsuaq","icao":"BGBW","iata":"UAK"}
{"_id":{"$oid":"57600fb1708b8de513b73ff4"},"nome":"Dundas Airport","latitude":76525,"longitude":-68.8,"codPais":"GL","regiao":"GL-U-A","cidade":"Pituffik","icao":"BGDU","iata":"DUN"}
{"_id":{"$oid":"57600fb1708b8de513b73ff0"},"nome":"Qasigiannguit Heliport","latitude":68.82281555,"longitude":-51.17344737,"codPais":"GL","regiao":"GL-U-A","cidade":"Qasigiannguit","icao":"BGCH","iata":"JCH"}
{"_id":{"$oid":"57600fb1708b8de513b73ff5"},"nome":"Eqalugaarsuit Heliport","latitude":60.61971965,"longitude":-45.91406196,"codPais":"GL","regiao":"GL-U-A","cidade":"Eqalugaarsuit","icao":"BGET","iata":"QFG"}
{"_id":{"$oid":"57600fb1708b8de513b73fe8"},"nome":"Stara Zagora Airport","latitude":42.72579956,"longitude":26.03499985,"codPais":"BG","regiao":"BG-24","cidade":"Stara Zagora","icao":"LBSZ","iata":"SZR"}
{"_id":{"$oid":"57600fb1708b8de513b73ff6"},"nome":"Alluitsup Paa Heliport","latitude":60.46445,"longitude":-45.56917,"codPais":"GL","regiao":"GL-U-A","cidade":"Alluitsup Paa","icao":"BGAP","iata":"LLU"}
{"_id":{"$oid":"57600fb1708b8de513b73ff7"},"nome":"Aappilattoq (Kujalleq) Heliport","latitude":60.14835711,"longitude":-44.28691864,"codPais":"GL","regiao":"GL-U-A","cidade":"Nanortalik","icao":"BGAQ","iata":"QUV"}
{"_id":{"$oid":"57600fb1708b8de513b73ffc"},"nome":"Iginniarfik","latitude":68.14722559,"longitude":-53.17352772,"codPais":"GL","regiao":"GL-U-A","cidade":"Iginniarfik","icao":"BGIG","iata":"QFI"}
{"_id":{"$oid":"57600fb1708b8de513b73ffd"},"nome":"Ikerassaarsuk Heliport","latitude":68.14088101,"longitude":-53.44145894,"codPais":"GL","regiao":"GL-U-A","cidade":"Ikerassaarsuk","icao":"BGIK","iata":"QRY"}
{"_id":{"$oid":"57600fb1708b8de513b73ffa"},"nome":"Neerlerit Inaat Airport","latitude":70.74310303,"longitude":-22.65049934,"codPais":"GL","regiao":"GL-U-A","cidade":"Neerlerit Inaat","icao":"BGCO","iata":"CNP"}
{"_id":{"$oid":"57600fb1708b8de513b73ffe"},"nome":"Ilimanaq Heliport","latitude":69.080915,"longitude":-51.11431539,"codPais":"GL","regiao":"GL-U-A","cidade":"Ilimanaq","icao":"BGIL","iata":"XIQ"}
{"_id":{"$oid":"57600fb1708b8de513b74001"},"nome":"Qeqertarsuaq Heliport","latitude":69.25118199,"longitude":-53.51487637,"codPais":"GL","regiao":"GL-U-A","cidade":"Qeqertarsuaq Airport","icao":"BGGN","iata":"JGO"}
{"_id":{"$oid":"57600fb1708b8de513b74005"},"nome":"Qaqortoq Heliport","latitude":60.71568416,"longitude":-46.02991864,"codPais":"GL","regiao":"GL-U-A","cidade":"Qaqortoq","icao":"BGJH","iata":"JJU"}
{"_id":{"$oid":"57600fb1708b8de513b74003"},"nome":"Ikamiut Heliport","latitude":68.6342531,"longitude":-51.83226228,"codPais":"GL","regiao":"GL-U-A","cidade":"Ikamiut","icao":"BGIT","iata":"QJI"}
{"_id":{"$oid":"57600fb1708b8de513b74004"},"nome":"Godthaab / Nuuk Airport","latitude":64.19090271,"longitude":-51.67810059,"codPais":"GL","regiao":"GL-U-A","cidade":"Nuuk","icao":"BGGH","iata":"GOH"}
{"_id":{"$oid":"57600fb1708b8de513b73ff8"},"nome":"Narsaq Kujalleq Heliport","latitude":60.00469354,"longitude":-44.65693474,"codPais":"GL","regiao":"GL-U-A","cidade":"Narsaq Kujalleq","icao":"BGFD","iata":"QFN"}
{"_id":{"$oid":"57600fb1708b8de513b74007"},"nome":"Kangaatsiaq Heliport","latitude":68.31265749,"longitude":-53.46020758,"codPais":"GL","regiao":"GL-U-A","cidade":"Kangaatsiaq","icao":"BGKA","iata":"QPW"}
{"_id":{"$oid":"57600fb1708b8de513b7400e"},"nome":"Maniitsoq Airport","latitude":65.41249847,"longitude":-52.93939972,"codPais":"GL","regiao":"GL-U-A","cidade":"Maniitsoq","icao":"BGMQ","iata":"JSU"}
{"_id":{"$oid":"57600fb1708b8de513b7400a"},"nome":"Kulusuk Airport","latitude":65.57360077,"longitude":-37.12360001,"codPais":"GL","regiao":"GL-U-A","cidade":"Kulusuk","icao":"BGKK","iata":"KUS"}
{"_id":{"$oid":"57600fb1708b8de513b74010"},"nome":"Kitsissuarsuit Heliport","latitude":68.857926,"longitude":-53.12329531,"codPais":"GL","regiao":"GL-U-A","cidade":"Kitsissuarsuit","icao":"BGKT","iata":"QJE"}
{"_id":{"$oid":"57600fb1708b8de513b74014"},"nome":"Niaqornaarsuk Heliport","latitude":68.23638115,"longitude":-52.85214812,"codPais":"GL","regiao":"GL-U-A","cidade":"Niaqornaarsuk","icao":"BGNK","iata":"QMK"}
{"_id":{"$oid":"57600fb1708b8de513b74015"},"nome":"Nanortalik Heliport","latitude":60.14188398,"longitude":-45.23297668,"codPais":"GL","regiao":"GL-U-A","cidade":"Nanortalik","icao":"BGNN","iata":"JNN"}
{"_id":{"$oid":"57600fb1708b8de513b74018"},"nome":"Bongo Airport","latitude":-2.1713,"longitude":10.2088,"codPais":"GA","regiao":"GA-8","cidade":"Bongo","icao":"","iata":"BGP"}
{"_id":{"$oid":"57600fb1708b8de513b74008"},"nome":"Upernavik Kujalleq Heliport","latitude":72.15274253,"longitude":-55.53098559,"codPais":"GL","regiao":"GL-U-A","cidade":"Upernavik Kujalleq","icao":"BGKL","iata":"UPK"}
{"_id":{"$oid":"57600fb1708b8de513b7401b"},"nome":"Qeqertaq Heliport","latitude":69.99586111,"longitude":-51.30091667,"codPais":"GL","regiao":"GL-U-A","cidade":"Qeqertaq","icao":"BGQE","iata":"QQT"}
{"_id":{"$oid":"57600fb1708b8de513b7401a"},"nome":"Paamiut Airport","latitude":62.01473618,"longitude":-49.67093658,"codPais":"GL","regiao":"GL-U-A","cidade":"Paamiut","icao":"BGPT","iata":"JFR"}
{"_id":{"$oid":"57600fb1708b8de513b7401c"},"nome":"Qaanaaq Airport","latitude":77.48860168,"longitude":-69.38870239,"codPais":"GL","regiao":"GL-U-A","cidade":"Qaanaaq","icao":"BGQQ","iata":"NAQ"}
{"_id":{"$oid":"57600fb1708b8de513b7401e"},"nome":"Narsaq Heliport","latitude":60.91728273,"longitude":-46.05992317,"codPais":"GL","regiao":"GL-U-A","cidade":"Narsaq","icao":"BGNS","iata":"JNS"}
{"_id":{"$oid":"57600fb1708b8de513b74022"},"nome":"Kangerlussuaq Airport","latitude":67.0122219,"longitude":-50.71160316,"codPais":"GL","regiao":"GL-U-A","cidade":"Kangerlussuaq","icao":"BGSF","iata":"SFJ"}
{"_id":{"$oid":"57600fb1708b8de513b74020"},"nome":"Ittoqqortoormiit Heliport","latitude":70.48822882,"longitude":-21.97167993,"codPais":"GL","regiao":"GL-U-A","cidade":"Ittoqqortoormiit","icao":"BGSC","iata":"OBY"}
{"_id":{"$oid":"57600fb1708b8de513b74006"},"nome":"Ilulissat Airport","latitude":69.24320221,"longitude":-51.05709839,"codPais":"GL","regiao":"GL-U-A","cidade":"Ilulissat","icao":"BGJN","iata":"JAV"}
{"_id":{"$oid":"57600fb1708b8de513b74027"},"nome":"Thule Air Base","latitude":76.53119659,"longitude":-68.70320129,"codPais":"GL","regiao":"GL-U-A","cidade":"Thule","icao":"BGTL","iata":"THU"}
{"_id":{"$oid":"57600fb1708b8de513b7402a"},"nome":"Upernavik Airport","latitude":72.79019928,"longitude":-56.13059998,"codPais":"GL","regiao":"GL-U-A","cidade":"Upernavik","icao":"BGUK","iata":"JUV"}
{"_id":{"$oid":"57600fb1708b8de513b74024"},"nome":"Saqqaq Heliport","latitude":70.01144815,"longitude":-51.93214238,"codPais":"GL","regiao":"GL-U-A","cidade":"Saqqaq","icao":"BGSQ","iata":"QUP"}
{"_id":{"$oid":"57600fb1708b8de513b7402b"},"nome":"Uummannaq Heliport","latitude":70.68042793,"longitude":-52.11163044,"codPais":"GL","regiao":"GL-U-A","cidade":"Uummannaq","icao":"BGUM","iata":"UMD"}
{"_id":{"$oid":"57600fb1708b8de513b7402c"},"nome":"Qaarsut Airport","latitude":70.73419952,"longitude":-52.69620132,"codPais":"GL","regiao":"GL-U-A","cidade":"Uummannaq","icao":"BGUQ","iata":"JQA"}
{"_id":{"$oid":"57600fb1708b8de513b74030"},"nome":"Brighton Downs Airport","latitude":-23.36388889,"longitude":141.5627778,"codPais":"AU","regiao":"AU-QLD","cidade":"","icao":"","iata":"BHT"}
{"_id":{"$oid":"57600fb1708b8de513b74034"},"nome":"Sisimiut Airport","latitude":66.95130157,"longitude":-53.72930145,"codPais":"GL","regiao":"GL-U-A","cidade":"Sisimiut","icao":"BGSS","iata":"JHS"}
{"_id":{"$oid":"57600fb1708b8de513b74031"},"nome":"Bahía de los Ángeles Airport","latitude":28.97859955,"longitude":-113.560997,"codPais":"MX","regiao":"MX-BCN","cidade":"Bahía de los Ángeles","icao":"","iata":"BHL"}
{"_id":{"$oid":"57600fb1708b8de513b7403a"},"nome":"Breiðdalsvík Airport","latitude":64.79000092,"longitude":-14.02280045,"codPais":"IS","regiao":"IS-7","cidade":"Breiðdalsvík","icao":"BIBV","iata":"BXV"}
{"_id":{"$oid":"57600fb1708b8de513b7403c"},"nome":"Djúpivogur Airport","latitude":64.64420319,"longitude":-14.28279972,"codPais":"IS","regiao":"IS-7","cidade":"Djúpivogur","icao":"BIDV","iata":"DJU"}
{"_id":{"$oid":"57600fb1708b8de513b7403d"},"nome":"Egilsstaðir Airport","latitude":65.28330231,"longitude":-14.40139961,"codPais":"IS","regiao":"IS-7","cidade":"Egilsstaðir","icao":"BIEG","iata":"EGS"}
{"_id":{"$oid":"57600fb1708b8de513b7403f"},"nome":"Akureyri Airport","latitude":65.66000366,"longitude":-18.0727005,"codPais":"IS","regiao":"IS-6","cidade":"Akureyri","icao":"BIAR","iata":"AEY"}
{"_id":{"$oid":"57600fb1708b8de513b74041"},"nome":"Fáskrúðsfjörður Airport","latitude":64.93170166,"longitude":-14.06060028,"codPais":"IS","regiao":"IS-7","cidade":"Fáskrúðsfjörður","icao":"BIFF","iata":"FAS"}
{"_id":{"$oid":"57600fb1708b8de513b74038"},"nome":"Hjaltabakki Airport","latitude":65.64499664,"longitude":-20.28750038,"codPais":"IS","regiao":"IS-5","cidade":"Blönduós","icao":"BIBL","iata":"BLO"}
{"_id":{"$oid":"57600fb1708b8de513b74042"},"nome":"Bildudalur Airport","latitude":65.64129639,"longitude":-23.5461998,"codPais":"IS","regiao":"IS-4","cidade":"Bildudalur","icao":"BIBD","iata":"BIU"}
{"_id":{"$oid":"57600fb1708b8de513b74039"},"nome":"Búðardalur Airport","latitude":65.07530212,"longitude":-21.8003006,"codPais":"IS","regiao":"IS-3","cidade":"Búðardalur","icao":"BIBR","iata":"BQD"}
{"_id":{"$oid":"57600fb1708b8de513b74046"},"nome":"Grundarfjörður Airport","latitude":64.99140167,"longitude":-23.22470093,"codPais":"IS","regiao":"IS-3","cidade":"Grundarfjörður","icao":"BIGF","iata":"GUU"}
{"_id":{"$oid":"57600fb1708b8de513b74043"},"nome":"Fagurhólsmýri Airport","latitude":63.87469864,"longitude":-16.64109993,"codPais":"IS","regiao":"IS-7","cidade":"Fagurhólsmýri","icao":"BIFM","iata":"FAG"}
{"_id":{"$oid":"57600fb1708b8de513b74049"},"nome":"Gjögur Airport","latitude":65.99530029,"longitude":-21.32690048,"codPais":"IS","regiao":"IS-4","cidade":"Gjögur","icao":"BIGJ","iata":"GJR"}
{"_id":{"$oid":"57600fb1708b8de513b7404a"},"nome":"Grímsey Airport","latitude":66.5458,"longitude":-18.0173,"codPais":"IS","regiao":"IS-6","cidade":"Grímsey","icao":"BIGR","iata":"GRY"}
{"_id":{"$oid":"57600fb1708b8de513b74047"},"nome":"Borgarfjörður eystri Airport","latitude":65.5164032,"longitude":-13.80500031,"codPais":"IS","regiao":"IS-7","cidade":"Borgarfjörður eystri","icao":"BIBF","iata":"BGJ"}
{"_id":{"$oid":"57600fb1708b8de513b74050"},"nome":"Holt Airport","latitude":66.01418043,"longitude":-23.4416914,"codPais":"IS","regiao":"IS-4","cidade":"Flateyri","icao":"BIHT","iata":"FLI"}
{"_id":{"$oid":"57600fb1708b8de513b74051"},"nome":"Hólmavík Airport","latitude":65.70469666,"longitude":-21.69639969,"codPais":"IS","regiao":"IS-4","cidade":"Hólmavík","icao":"BIHK","iata":"HVK"}
{"_id":{"$oid":"57600fb1708b8de513b74054"},"nome":"Krókstaðarmelar Airport","latitude":65.2664032,"longitude":-20.84690094,"codPais":"IS","regiao":"IS-5","cidade":"Hvammstangi","icao":"BIHV","iata":"HVM"}
{"_id":{"$oid":"57600fb1708b8de513b74055"},"nome":"Husavik Airport","latitude":65.95230103,"longitude":-17.4260006,"codPais":"IS","regiao":"IS-6","cidade":"Husavik","icao":"BIHU","iata":"HZK"}
{"_id":{"$oid":"57600fb1708b8de513b74052"},"nome":"Hornafjordur Airport","latitude":64.29560089,"longitude":-15.22719955,"codPais":"IS","regiao":"IS-7","cidade":"Hornafjordur","icao":"BIHN","iata":"HFN"}
{"_id":{"$oid":"57600fb1708b8de513b74058"},"nome":"Biliau Airport","latitude":-5578,"longitude":146339,"codPais":"PG","regiao":"PG-MPM","cidade":"Biliau","icao":"","iata":"BIJ"}
{"_id":{"$oid":"57600fb1708b8de513b7405b"},"nome":"Keflavik International Airport","latitude":63.98500061,"longitude":-22.60560036,"codPais":"IS","regiao":"IS-2","cidade":"Reykjavík","icao":"BIKF","iata":"KEF"}
{"_id":{"$oid":"57600fb1708b8de513b74060"},"nome":"Sauðárkrókur Airport","latitude":65.73169708,"longitude":-19.57279968,"codPais":"IS","regiao":"IS-5","cidade":"Sauðárkrókur","icao":"BIKR","iata":"SAK"}
{"_id":{"$oid":"57600fb1708b8de513b7405f"},"nome":"Ingjaldssanður Airport","latitude":66.05000305,"longitude":-23.69610023,"codPais":"IS","regiao":"IS-4","cidade":"Onundarfjörður","icao":"BIID","iata":"HLO"}
{"_id":{"$oid":"57600fb1708b8de513b74066"},"nome":"Ísafjörður Airport","latitude":66.05809784,"longitude":-23.13529968,"codPais":"IS","regiao":"IS-4","cidade":"Ísafjörður","icao":"BIIS","iata":"IFJ"}
{"_id":{"$oid":"57600fb1708b8de513b74037"},"nome":"Bakkafjörður Airport","latitude":66.02189636,"longitude":-14.82439995,"codPais":"IS","regiao":"IS-6","cidade":"Bakkafjörður","icao":"BIBK","iata":"BJD"}
{"_id":{"$oid":"57600fb1708b8de513b74067"},"nome":"Patreksfjordur Airport","latitude":65.55580139,"longitude":-23.96500015,"codPais":"IS","regiao":"IS-4","cidade":"Patreksfjordur","icao":"BIPA","iata":"PFJ"}
{"_id":{"$oid":"57600fb1708b8de513b74069"},"nome":"Rif Airport","latitude":64.91139984,"longitude":-23.82309914,"codPais":"IS","regiao":"IS-3","cidade":"Rif","icao":"BIRF","iata":"OLI"}
{"_id":{"$oid":"57600fb1708b8de513b7406a"},"nome":"Raufarhöfn Airport","latitude":66.40640259,"longitude":-15.91829967,"codPais":"IS","regiao":"IS-6","cidade":"Raufarhöfn","icao":"BIRG","iata":"RFN"}
{"_id":{"$oid":"57600fb1708b8de513b7406c"},"nome":"Reykjahlíð Airport","latitude":65.65579987,"longitude":-16.91810036,"codPais":"IS","regiao":"IS-6","cidade":"Myvatn","icao":"BIRL","iata":"MVA"}
{"_id":{"$oid":"57600fb1708b8de513b7406b"},"nome":"Reykjavik Airport","latitude":64.12999725,"longitude":-21.94059944,"codPais":"IS","regiao":"IS-1","cidade":"Reykjavik","icao":"BIRK","iata":"RKV"}
{"_id":{"$oid":"57600fb1708b8de513b7406d"},"nome":"Ólafsfjörður Airport","latitude":66.08329773,"longitude":-18.66670036,"codPais":"IS","regiao":"IS-6","cidade":"Ólafsfjörður","icao":"BIOF","iata":"OFJ"}
{"_id":{"$oid":"57600fb1708b8de513b7406e"},"nome":"Norðfjörður Airport","latitude":65.13189697,"longitude":-13.74639988,"codPais":"IS","regiao":"IS-7","cidade":"Norðfjörður","icao":"BINF","iata":"NOR"}
{"_id":{"$oid":"57600fb1708b8de513b74068"},"nome":"Reykhólar Airport","latitude":65.45262909,"longitude":-22.20611572,"codPais":"IS","regiao":"IS-4","cidade":"Reykhólar","icao":"BIRE","iata":"RHA"}
{"_id":{"$oid":"57600fb1708b8de513b7407d"},"nome":"Þingeyri Airport","latitude":65.87030029,"longitude":-23.55999947,"codPais":"IS","regiao":"IS-4","cidade":"Þingeyri","icao":"BITE","iata":"TEY"}
{"_id":{"$oid":"57600fb1708b8de513b74079"},"nome":"Siglufjordur Airport","latitude":66.13330078,"longitude":-18.91670036,"codPais":"IS","regiao":"IS-6","cidade":"Siglufjordur","icao":"BISI","iata":"SIJ"}
{"_id":{"$oid":"57600fb1708b8de513b7407e"},"nome":"Thorshofn Airport","latitude":66.21849823,"longitude":-15.3355999,"codPais":"IS","regiao":"IS-6","cidade":"Thorshofn","icao":"BITN","iata":"THO"}
{"_id":{"$oid":"57600fb1708b8de513b74078"},"nome":"Stykkishólmur Airport","latitude":65.05809784,"longitude":-22.7942009,"codPais":"IS","regiao":"IS-3","cidade":"Stykkishólmur","icao":"BIST","iata":"SYK"}
{"_id":{"$oid":"57600fb1708b8de513b74084"},"nome":"Sauðanes Airport","latitude":66.25060272,"longitude":-15.26720047,"codPais":"IS","regiao":"IS-6","cidade":"","icao":"BITH","iata":"THO"}
{"_id":{"$oid":"57600fb1708b8de513b74087"},"nome":"Bahja Airport","latitude":19.87305556,"longitude":56.06777778,"codPais":"OM","regiao":"OM-WU","cidade":"Bahja","icao":"","iata":"BJQ"}
{"_id":{"$oid":"57600fb1708b8de513b74086"},"nome":"Tálknafjörður Airport","latitude":65.676037,"longitude":-24.006114,"codPais":"IS","regiao":"IS-4","cidade":"Tálknafjörður","icao":"BITF","iata":"TLK"}
{"_id":{"$oid":"57600fb1708b8de513b74070"},"nome":"Kópasker Airport","latitude":66.31079865,"longitude":-16.4666996,"codPais":"IS","regiao":"IS-6","cidade":"Kópasker","icao":"BIKP","iata":"OPA"}
{"_id":{"$oid":"57600fb1708b8de513b74089"},"nome":"Priština International Airport","latitude":42.57279968,"longitude":21.03580093,"codPais":"KS","regiao":"KS-U-A","cidade":"Prishtina","icao":"BKPR","iata":"PRN"}
{"_id":{"$oid":"57600fb1708b8de513b7408c"},"nome":"Bellows AFS (Bellows Field)","latitude":21.37083333,"longitude":-157.7138889,"codPais":"US","regiao":"US-HI","cidade":"Waimanalo","icao":"","iata":"BLW"}
{"_id":{"$oid":"57600fb1708b8de513b7408d"},"nome":"Baleela Airport","latitude":11.19944444,"longitude":28.52305556,"codPais":"SD","regiao":"SD-13","cidade":"Baleela Base Camp","icao":"","iata":"BJE"}
{"_id":{"$oid":"57600fb1708b8de513b7408e"},"nome":"Bimin Airport","latitude":-5.286111111,"longitude":142.0330556,"codPais":"PG","regiao":"PG-SAN","cidade":"","icao":"","iata":"BIZ"}
{"_id":{"$oid":"57600fb1708b8de513b7408f"},"nome":"Vopnafjörður Airport","latitude":65.72059631,"longitude":-14.85060024,"codPais":"IS","regiao":"IS-7","cidade":"Vopnafjörður","icao":"BIVO","iata":"VPN"}
{"_id":{"$oid":"57600fb1708b8de513b74092"},"nome":"Bomai Airport","latitude":-6.373166667,"longitude":144637,"codPais":"PG","regiao":"PG-CPK","cidade":"Bomai","icao":"AYBO","iata":"BMH"}
{"_id":{"$oid":"57600fb1708b8de513b74088"},"nome":"Bentota River Waterdrome","latitude":6431,"longitude":79996,"codPais":"LK","regiao":"LK-1","cidade":"Bentota","icao":"","iata":"BJT"}
{"_id":{"$oid":"57600fb1708b8de513b74094"},"nome":"Baganga airport","latitude":7.611944444,"longitude":126.5688889,"codPais":"PH","regiao":"PH-DAO","cidade":"Baganga","icao":"","iata":"BNQ"}
{"_id":{"$oid":"57600fb1708b8de513b74095"},"nome":"Bundi Airport","latitude":-5.742222222,"longitude":145.2275,"codPais":"PG","regiao":"PG-MPM","cidade":"Bundi","icao":"AYDI","iata":"BNT"}
{"_id":{"$oid":"57600fb1708b8de513b74093"},"nome":"Bamburi Airport","latitude":-3.981909624,"longitude":39.7307682,"codPais":"KE","regiao":"KE-300","cidade":"","icao":"HKBM","iata":"BMQ"}
{"_id":{"$oid":"57600fb1708b8de513b74096"},"nome":"Boana Airport","latitude":-6433,"longitude":146825,"codPais":"PG","regiao":"PG-MPL","cidade":"Boana","icao":"","iata":"BNV"}
{"_id":{"$oid":"57600fb1708b8de513b74097"},"nome":"Banz Airport","latitude":-5807,"longitude":144623,"codPais":"PG","regiao":"PG-JI","cidade":"Banz","icao":"","iata":"BNZ"}
{"_id":{"$oid":"57600fb1708b8de513b74098"},"nome":"Rurenabaque Airport","latitude":-14.42790031,"longitude":-67.49680328,"codPais":"BO","regiao":"BO-B","cidade":"Rurenabaque","icao":"SLRQ","iata":"RBQ"}
{"_id":{"$oid":"57600fb1708b8de513b7409a"},"nome":"Bodinumu Airport","latitude":-9.107777778,"longitude":147.6667222,"codPais":"PG","regiao":"PG-CPM","cidade":"Bodinumu","icao":"AYBD","iata":"BNM"}
{"_id":{"$oid":"57600fb1708b8de513b7409b"},"nome":"Warm Spring Bay Seaplane Base","latitude":57.08879852,"longitude":-134.8329926,"codPais":"US","regiao":"US-AK","cidade":"Baranof","icao":"","iata":"BNF"}
{"_id":{"$oid":"57600fb1708b8de513b7409e"},"nome":"Bosset Airport","latitude":-7.240833333,"longitude":141.0923333,"codPais":"PG","regiao":"PG-WPD","cidade":"Bosset","icao":"AYET","iata":"BOT"}
{"_id":{"$oid":"57600fb1708b8de513b7409c"},"nome":"Bamu Airport","latitude":-7.8485,"longitude":143.2433,"codPais":"PG","regiao":"PG-WPD","cidade":"Bamu","icao":"AYBF","iata":"BMZ"}
{"_id":{"$oid":"57600fb1708b8de513b7409f"},"nome":"Boang Airport","latitude":-3.3834,"longitude":153.2812,"codPais":"PG","regiao":"PG-NIK","cidade":"Boang Island","icao":"","iata":"BOV"}
{"_id":{"$oid":"57600fb1708b8de513b740a0"},"nome":"Batuna Aerodrome","latitude":-8.562027778,"longitude":158.1193056,"codPais":"SB","regiao":"SB-WE","cidade":"Batuna Mission Station","icao":"AGBT","iata":"BPF"}
{"_id":{"$oid":"57600fb1708b8de513b740a1"},"nome":"Bartlett Cove Seaplane Base","latitude":58.4552002,"longitude":-135.8849945,"codPais":"US","regiao":"US-AK","cidade":"Gustavus","icao":"BQV","iata":"BQV"}
{"_id":{"$oid":"57600fb1708b8de513b740a4"},"nome":"Boku Airport","latitude":-6.5427,"longitude":155.3419,"codPais":"PG","regiao":"PG-NSB","cidade":"Boku","icao":"","iata":"BOQ"}
{"_id":{"$oid":"57600fb1708b8de513b740a5"},"nome":"Brookings Airport","latitude":42.07460022,"longitude":-124.2900009,"codPais":"US","regiao":"US-OR","cidade":"Brookings","icao":"BOK","iata":"BOK"}
{"_id":{"$oid":"57600fb1708b8de513b7409d"},"nome":"Baures Airport","latitude":-13.58333302,"longitude":-63.58333206,"codPais":"BO","regiao":"BO-B","cidade":"Baures","icao":"SLBA","iata":"BVL"}
{"_id":{"$oid":"57600fb1708b8de513b740a9"},"nome":"Bolling Air Force Base","latitude":38.84289932,"longitude":-77.01609802,"codPais":"US","regiao":"US-DC","cidade":"Washington","icao":"KBOF","iata":"BOF"}
{"_id":{"$oid":"57600fb1708b8de513b740b9"},"nome":"Alenquer Airport","latitude":-1917,"longitude":-54.7231,"codPais":"BR","regiao":"BR-PA","cidade":"Alenquer","icao":"SDWQ","iata":"ALT"}
{"_id":{"$oid":"57600fb1708b8de513b740b0"},"nome":"Tucumã Airport","latitude":-6.7488,"longitude":-51.1478,"codPais":"BR","regiao":"BR-PA","cidade":"Tucumã","icao":"","iata":"TUZ"}
{"_id":{"$oid":"57600fb1708b8de513b740bb"},"nome":"Suia-Missu Airport","latitude":-11.67169952,"longitude":-51.43470001,"codPais":"BR","regiao":"BR-MT","cidade":"Alto Boa Vista","icao":"","iata":"SWM"}
{"_id":{"$oid":"57600fb1708b8de513b740bc"},"nome":"Whitesburg Municipal Airport","latitude":37.2219,"longitude":-82.8742,"codPais":"US","regiao":"US-KY","cidade":"Whitesburg","icao":"","iata":"BRG"}
{"_id":{"$oid":"57600fb1708b8de513b740c2"},"nome":"Bimini North Seaplane Base","latitude":25.7670002,"longitude":-79.25,"codPais":"BS","regiao":"BS-BI","cidade":"Bimini","icao":"","iata":"NSB"}
{"_id":{"$oid":"57600fb1708b8de513b740c3"},"nome":"Blairsville","latitude":40.44472222,"longitude":-79.28863889,"codPais":"US","regiao":"US-PA","cidade":"Blairsville","icao":"","iata":"BSI"}
{"_id":{"$oid":"57600fb1708b8de513b740c4"},"nome":"Bensbach Airport","latitude":-8.858055556,"longitude":141.2594444,"codPais":"PG","regiao":"PG-WPD","cidade":"Bensbach","icao":"AYBH","iata":"BSP"}
{"_id":{"$oid":"57600fb1708b8de513b740ca"},"nome":"Esperadinha Airport","latitude":14.86430556,"longitude":-24746,"codPais":"CV","regiao":"CV-S","cidade":"Brava Island","icao":"GVBR","iata":"BVR"}
{"_id":{"$oid":"57600fb1708b8de513b740c9"},"nome":"Bolovip Airstrip","latitude":-5.3633,"longitude":141655,"codPais":"PG","regiao":"PG-WPD","cidade":"Bolovip","icao":"","iata":"BVP"}
{"_id":{"$oid":"57600fb1708b8de513b740cb"},"nome":"Bulolo Airport","latitude":-7.216286671,"longitude":146.6495419,"codPais":"PG","regiao":"PG-MPL","cidade":"Bulolo","icao":"AYBU","iata":"BUL"}
{"_id":{"$oid":"57600fb1708b8de513b740cc"},"nome":"Bewani Airport","latitude":-3.021666667,"longitude":141.1652778,"codPais":"PG","regiao":"PG-SAN","cidade":"Bewani","icao":"AYBI","iata":"BWP"}
{"_id":{"$oid":"57600fb1708b8de513b740cd"},"nome":"Blue Lagoon Seaplane Base","latitude":-16.96583333,"longitude":177.3698889,"codPais":"FJ","regiao":"FJ-W","cidade":"Nanuya Lailai Island","icao":"","iata":"BXL"}
{"_id":{"$oid":"57600fb1708b8de513b740d3"},"nome":"Hukuntsi Airport","latitude":-23.98970032,"longitude":21.75810051,"codPais":"BW","regiao":"BW-KG","cidade":"Hukuntsi","icao":"","iata":"HUK"}
{"_id":{"$oid":"57600fb1708b8de513b740ce"},"nome":"Bunsil Airport","latitude":-5.7243,"longitude":147.8667,"codPais":"PG","regiao":"PG-MPL","cidade":"Bunsil - Umboi Island","icao":"AYNS","iata":"BXZ"}
{"_id":{"$oid":"57600fb1708b8de513b740c5"},"nome":"Besakoa Airport","latitude":-15.6725,"longitude":47.06166667,"codPais":"MG","regiao":"MG-M","cidade":"Besakoa","icao":"","iata":"BSV"}
{"_id":{"$oid":"57600fb1708b8de513b740d4"},"nome":"Bawan Airport","latitude":-6.396944444,"longitude":146.8816667,"codPais":"PG","regiao":"PG-MPL","cidade":"","icao":"","iata":"BWJ"}
{"_id":{"$oid":"57600fb1708b8de513b740e0"},"nome":"Bella Yella Airport","latitude":7.369166667,"longitude":-9.993722222,"codPais":"LR","regiao":"LR-LO","cidade":"Beliyela","icao":"","iata":"BYL"}
{"_id":{"$oid":"57600fb1708b8de513b740e1"},"nome":"Beira Lake Seaplane Base","latitude":6.929444444,"longitude":79.85416667,"codPais":"LK","regiao":"LK-1","cidade":"Colombo","icao":"","iata":"BYV"}
{"_id":{"$oid":"57600fb1708b8de513b740e4"},"nome":"Belmopan Airport","latitude":17.26959991,"longitude":-88.77649689,"codPais":"BZ","regiao":"BZ-CY","cidade":"Belmopan","icao":"","iata":"BCV"}
{"_id":{"$oid":"57600fb1708b8de513b740e6"},"nome":"Caye Caulker Airport","latitude":17.73469925,"longitude":-88.03250122,"codPais":"BZ","regiao":"BZ-BZ","cidade":"Caye Caulker","icao":"","iata":"CUK"}
{"_id":{"$oid":"57600fb1708b8de513b740e7"},"nome":"Big Creek Airport","latitude":16.51936913,"longitude":-88.40791321,"codPais":"BZ","regiao":"BZ-SC","cidade":"Big Creek","icao":"","iata":"BGK"}
{"_id":{"$oid":"57600fb1708b8de513b740e8"},"nome":"Dangriga Airport","latitude":16.98250961,"longitude":-88.23098755,"codPais":"BZ","regiao":"BZ-SC","cidade":"Dangriga","icao":"","iata":"DGA"}
{"_id":{"$oid":"57600fb1708b8de513b740df"},"nome":"Boundary Airport","latitude":64.07830048,"longitude":-141.1130066,"codPais":"US","regiao":"US-AK","cidade":"Boundary","icao":"BYA","iata":"BYA"}
{"_id":{"$oid":"57600fb1708b8de513b740e9"},"nome":"Independence Airport","latitude":16.53450012,"longitude":-88.44129944,"codPais":"BZ","regiao":"BZ-SC","cidade":"Independence","icao":"","iata":"INB"}
{"_id":{"$oid":"57600fb1708b8de513b740eb"},"nome":"Orange Walk Airport","latitude":18.04676628,"longitude":-88.58386993,"codPais":"BZ","regiao":"BZ-OW","cidade":"Orange Walk","icao":"","iata":"ORZ"}
{"_id":{"$oid":"57600fb1708b8de513b740ec"},"nome":"Placencia Airport","latitude":16.53695679,"longitude":-88.36151123,"codPais":"BZ","regiao":"BZ-SC","cidade":"Placencia","icao":"","iata":"PLJ"}
{"_id":{"$oid":"57600fb1708b8de513b740ea"},"nome":"Melinda Airport","latitude":17.00429916,"longitude":-88.30419922,"codPais":"BZ","regiao":"BZ-SC","cidade":"Melinda","icao":"","iata":"MDB"}
{"_id":{"$oid":"57600fb1708b8de513b740ed"},"nome":"Punta Gorda Airport","latitude":16.10239983,"longitude":-88.8082962,"codPais":"BZ","regiao":"BZ-TOL","cidade":"Punta Gorda","icao":"","iata":"PND"}
{"_id":{"$oid":"57600fb1708b8de513b740ee"},"nome":"Sartaneja Airport","latitude":18.35610008,"longitude":-88.13079834,"codPais":"BZ","regiao":"BZ-CZL","cidade":"Sartaneja","icao":"","iata":"SJX"}
{"_id":{"$oid":"57600fb1708b8de513b740ef"},"nome":"San Pedro Airport","latitude":17.91390038,"longitude":-87.97109985,"codPais":"BZ","regiao":"BZ-CY","cidade":"San Pedro","icao":"","iata":"SPR"}
{"_id":{"$oid":"57600fb1708b8de513b740f0"},"nome":"Matthew Spain Airport","latitude":17.1859,"longitude":-89.0098,"codPais":"BZ","regiao":"BZ-CY","cidade":"San Ignacio","icao":"","iata":"SQS"}
{"_id":{"$oid":"57600fb1708b8de513b740f4"},"nome":"Belize City Municipal Airport","latitude":17.51638985,"longitude":-88.19444275,"codPais":"BZ","regiao":"BZ-BZ","cidade":"Belize City","icao":"","iata":"TZA"}
{"_id":{"$oid":"57600fb1708b8de513b740f5"},"nome":"Corozal Municipal Airport","latitude":18.38220024,"longitude":-88.41190338,"codPais":"BZ","regiao":"BZ-CZL","cidade":"Corozal","icao":"","iata":"CZH"}
{"_id":{"$oid":"57600fb1708b8de513b740f3"},"nome":"Santa Cruz Airport","latitude":18.27210045,"longitude":-88.45629883,"codPais":"BZ","regiao":"BZ-CZL","cidade":"Santa Cruz","icao":"","iata":"STU"}
{"_id":{"$oid":"57600fb1708b8de513b740f6"},"nome":"Silver Creek Airport","latitude":16.72529984,"longitude":-88.33999634,"codPais":"BZ","regiao":"BZ-SC","cidade":"Silver Creek","icao":"","iata":"SVK"}
{"_id":{"$oid":"57600fb1708b8de513b740f7"},"nome":"Bemolanga Airport","latitude":-17.6925,"longitude":45.08883333,"codPais":"MG","regiao":"MG-M","cidade":"Bemolanga","icao":"","iata":"BZM"}
{"_id":{"$oid":"57600fb1708b8de513b74101"},"nome":"Bazaruto Island Airport","latitude":-21.54109955,"longitude":35.47290039,"codPais":"MZ","regiao":"MZ-I","cidade":"Bazaruto Island","icao":"","iata":"BZB"}
{"_id":{"$oid":"57600fb1708b8de513b7417f"},"nome":"Deception Airport","latitude":62.11231445,"longitude":-74.55468178,"codPais":"CA","regiao":"CA-QC","cidade":"","icao":"","iata":"YGY"}
{"_id":{"$oid":"57600fb1708b8de513b740f1"},"nome":"Caye Chapel Airport","latitude":17.70079994,"longitude":-88.04109955,"codPais":"BZ","regiao":"BZ-BZ","cidade":"Caye Chapel","icao":"","iata":"CYC"}
{"_id":{"$oid":"57600fb1708b8de513b741e5"},"nome":"Lupin Airport","latitude":65.76667023,"longitude":-111.25,"codPais":"CA","regiao":"CA-NU","cidade":"Lupin Mine","icao":"CYWO","iata":"YWO"}
{"_id":{"$oid":"57600fb1708b8de513b741e1"},"nome":"Lady Franklin Point Airport","latitude":68.47531262,"longitude":-113.224411,"codPais":"CA","regiao":"CA-NU","cidade":"","icao":"CYUJ","iata":"YUJ"}
{"_id":{"$oid":"57600fb1708b8de513b74203"},"nome":"Moose Lake Airport","latitude":53.70625896,"longitude":-100.3439713,"codPais":"CA","regiao":"CA-MB","cidade":"","icao":"","iata":"YAD"}
{"_id":{"$oid":"57600fb1708b8de513b74207"},"nome":"Mould Bay Airport","latitude":76.2392,"longitude":-119.3216,"codPais":"CA","regiao":"CA-NT","cidade":"Prince Patrick Is.","icao":"","iata":"YMD"}
{"_id":{"$oid":"57600fb1708b8de513b7424a"},"nome":"Rivers Airport","latitude":50.01005576,"longitude":-100.3139305,"codPais":"CA","regiao":"CA-MB","cidade":"","icao":"","iata":"YYI"}
{"_id":{"$oid":"57600fb1708b8de513b74251"},"nome":"Saglek Airport","latitude":58.475119,"longitude":-62.655373,"codPais":"CA","regiao":"CA-NL","cidade":"RCAF Station Saglek","icao":"","iata":"YSV"}
{"_id":{"$oid":"57600fb1708b8de513b74292"},"nome":"Terrace Bay Airport","latitude":48.81197899,"longitude":-87.09943771,"codPais":"CA","regiao":"CA-ON","cidade":"Terrace Bay","icao":"ON","iata":"CYTJ"}
{"_id":{"$oid":"57600fb1708b8de513b741ab"},"nome":"Germansen Landing Airport","latitude":55.76666641,"longitude":-124.6999969,"codPais":"CA","regiao":"CA-BC","cidade":"","icao":"","iata":"YGS"}
{"_id":{"$oid":"57600fb1708b8de513b74083"},"nome":"Vestmannaeyjar Airport","latitude":63.42430115,"longitude":-20.27890015,"codPais":"IS","regiao":"IS-8","cidade":"Vestmannaeyjar","icao":"BIVM","iata":"VEY"}
{"_id":{"$oid":"57600fb1708b8de513b7432d"},"nome":"Lac William","latitude":"Piste de glace (hiver seulement)","longitude":46.12565999,"codPais":"NA","regiao":"CA","cidade":"CA-QC","icao":"Bernierville","iata":"CSH5"}
{"_id":{"$oid":"57600fb1708b8de513b74399"},"nome":"Bronson Creek Airport","latitude":56.68109894,"longitude":-131.0870056,"codPais":"CA","regiao":"CA-BC","cidade":"Bronson Creek","icao":"","iata":"YBM"}
{"_id":{"$oid":"57600fb1708b8de513b7439d"},"nome":"Nanaimo Harbour Water Airport","latitude":49.18330002,"longitude":-123.9499969,"codPais":"CA","regiao":"CA-BC","cidade":"Nanaimo","icao":"CAC8","iata":"ZNA"}
{"_id":{"$oid":"57600fb1708b8de513b7439a"},"nome":"Alice Arm/Silver City Seaplane Base","latitude":55.46670151,"longitude":-129.4830017,"codPais":"CA","regiao":"CA-BC","cidade":"","icao":"CAC3","iata":"ZAA"}
{"_id":{"$oid":"57600fb1708b8de513b743a1"},"nome":"Trail Airport","latitude":49.05559921,"longitude":-117.6090012,"codPais":"CA","regiao":"CA-BC","cidade":"Trail","icao":"CAD4","iata":"YZZ"}
{"_id":{"$oid":"57600fb1708b8de513b743a9"},"nome":"Whistler/Green Lake Water Aerodrome","latitude":50.14360046,"longitude":-122.9489975,"codPais":"CA","regiao":"CA-BC","cidade":"Whistler","icao":"CAE5","iata":"YWS"}
{"_id":{"$oid":"57600fb1708b8de513b743ab"},"nome":"Bamfield Seaplane Base","latitude":48.83330154,"longitude":-125.1330032,"codPais":"CA","regiao":"CA-BC","cidade":"Bamfield","icao":"CAE9","iata":"YBF"}
{"_id":{"$oid":"57600fb1708b8de513b74397"},"nome":"Bedwell Harbour Seaplane Base","latitude":48.75,"longitude":-123.2330017,"codPais":"CA","regiao":"CA-BC","cidade":"Bedwell Harbour","icao":"CAB3","iata":"YBW"}
{"_id":{"$oid":"57600fb1708b8de513b743b8"},"nome":"Chilko Lake (Tsylos Park Lodge) Airport","latitude":51.62609863,"longitude":-124.1419983,"codPais":"CA","regiao":"CA-BC","cidade":"Chilko Lake","icao":"CAG3","iata":"CJH"}
{"_id":{"$oid":"57600fb1708b8de513b743b0"},"nome":"Ocean Falls Seaplane Base","latitude":52.36669922,"longitude":-127.7170029,"codPais":"CA","regiao":"CA-BC","cidade":"Ocean Falls","icao":"CAH2","iata":"ZOF"}
{"_id":{"$oid":"57600fb1708b8de513b743bd"},"nome":"Anahim Lake Airport","latitude":52.45249939,"longitude":-125.3030014,"codPais":"CA","regiao":"CA-BC","cidade":"Anahim Lake","icao":"CAJ4","iata":"YAA"}
{"_id":{"$oid":"57600fb1708b8de513b743c3"},"nome":"Douglas Lake Airport","latitude":50.16546005,"longitude":-120.1712734,"codPais":"CA","regiao":"CA-BC","cidade":"Douglas Lake","icao":"CAL3","iata":"DGF"}
{"_id":{"$oid":"57600fb1708b8de513b743c6"},"nome":"Tahsis Seaplane Base","latitude":49.91669846,"longitude":-126.6669998,"codPais":"CA","regiao":"CA-BC","cidade":"Tahsis","icao":"CAL9","iata":"ZTS"}
{"_id":{"$oid":"57600fb1708b8de513b743c7"},"nome":"Duncan Airport","latitude":48.75453362,"longitude":-123.7097025,"codPais":"CA","regiao":"CA-BC","cidade":"Duncan","icao":"CAM3","iata":"DUQ"}
{"_id":{"$oid":"57600fb1708b8de513b743dd"},"nome":"Powell Lake Seaplane Base","latitude":49.88330078,"longitude":-124.5329971,"codPais":"CA","regiao":"CA-BC","cidade":"","icao":"CAQ8","iata":"WPL"}
{"_id":{"$oid":"57600fb1708b8de513b743f4"},"nome":"Mansons Landing Seaplane Base","latitude":50.06669998,"longitude":-124.9830017,"codPais":"CA","regiao":"CA-BC","cidade":"","icao":"CAV7","iata":"YMU"}
{"_id":{"$oid":"57600fb1708b8de513b743ce"},"nome":"Fort MacKay/Albian Aerodrome","latitude":57.22389984,"longitude":-111.4189987,"codPais":"CA","regiao":"CA-AB","cidade":"Albian Village","icao":"CAL4","iata":"JHL"}
{"_id":{"$oid":"57600fb1708b8de513b743fc"},"nome":"Mayne Island Seaplane Base","latitude":48.86669922,"longitude":-123.3000031,"codPais":"CA","regiao":"CA-BC","cidade":"Miners Bay","icao":"CAW7","iata":"YAV"}
{"_id":{"$oid":"57600fb1708b8de513b743ff"},"nome":"Ganges Seaplane Base","latitude":48.8545,"longitude":-123.4969,"codPais":"CA","regiao":"CA-BC","cidade":"Salt Spring Island","icao":"CAX6","iata":"YGG"}
{"_id":{"$oid":"57600fb1708b8de513b743ae"},